$SDDBT,38.0,f,11.6,M,06.3,F*3E
$SDDPT,11.6,-1.0,99.0*7F
$HCHDG,331.3,00.0,E,00.0,E*40
$WIMWV,025.0,R,016.3,N,A*20
$VWVHW,129.0,T,129.0,M,07.7,N,14.3,K*52
$GPRMC,164517.59,A,4601.47709,N,00114.10553,W,0008.9,303.6,160316,0.0,W,A*05
$GPGGA,164517.59,4601.47709,N,00114.10553,W,1,05,0.0,5,M,50.0,M,,*61
$GPGSA,A,3,02,03,14,23,31,,,,,,,,5.5,0.0,6.7*34
!AIVDM,1,1,,A,18vAfjo1hvwqN6PJHD8jHQrT050l,0*08
$SDDBT,37.2,f,11.3,M,06.2,F*37
$SDDPT,11.3,-1.0,99.0*7A
$HCHDG,331.3,00.0,E,00.0,E*40
$WIMWV,025.4,R,016.3,N,A*24
$VWVHW,129.0,T,129.0,M,07.7,N,14.3,K*52
$GPRMC,164518.67,A,4601.47846,N,00114.10850,W,0008.9,303.6,160316,0.0,W,A*0D
$GPGGA,164518.67,4601.47846,N,00114.10850,W,1,05,0.0,5,M,50.0,M,,*69
$GPGSA,A,3,02,03,14,23,31,,,,,,,,5.5,0.0,6.7*34
$SDDBT,39.3,f,12.0,M,06.6,F*3C
$SDDPT,12.0,-1.0,99.0*7A
$HCHDG,331.3,00.0,E,00.0,E*40
$WIMWV,025.0,R,016.5,N,A*26
$VWVHW,129.0,T,129.0,M,07.7,N,14.3,K*52
$GPRMC,164519.78,A,4601.47983,N,00114.11147,W,0008.9,303.6,160316,0.0,W,A*04
$GPGGA,164519.78,4601.47983,N,00114.11147,W,1,05,0.0,5,M,50.0,M,,*60
$GPGSA,A,3,02,03,14,23,31,,,,,,,,5.5,0.0,6.7*34
!AIVDM,1,1,,A,18vAfjo1hvwqN7pJHD<jHQr`050l,0*19
$SDDBT,38.7,f,11.8,M,06.5,F*31
$SDDPT,11.8,-1.0,99.0*71
$HCHDG,331.3,00.0,E,00.0,E*40
$WIMWV,025.1,R,016.8,N,A*2A
$VWVHW,129.0,T,129.0,M,07.7,N,14.3,K*52
$GPRMC,164520.86,A,4601.48120,N,00114.11444,W,0008.9,303.6,160316,0.0,W,A*07
$GPGGA,164520.86,4601.48120,N,00114.11444,W,1,05,0.0,5,M,50.0,M,,*63
$GPGSA,A,3,02,03,14,23,31,,,,,,,,5.5,0.0,6.7*34
!AIVDM,2,1,7,A,58vAfjl0Nm;<4U?F220HU<R0D5=V222222222200,0*2D
!AIVDM,2,2,7,A,FPD5?4QAO<Q1APEC588888888888882,2*54
$SDDBT,39.7,f,12.1,M,06.6,F*39
$SDDPT,12.1,-1.0,99.0*7B
$HCHDG,331.3,00.0,E,00.0,E*40
$WIMWV,025.8,R,016.7,N,A*2C
$VWVHW,129.0,T,129.0,M,07.7,N,14.3,K*52
$GPRMC,164521.97,A,4601.48257,N,00114.11741,W,0008.9,303.6,160316,0.0,W,A*03
$GPGGA,164521.97,4601.48257,N,00114.11741,W,1,05,0.0,5,M,50.0,M,,*67
$GPGSA,A,3,02,03,14,23,31,,,,,,,,5.5,0.0,6.7*34
!AIVDM,1,1,,A,18vAfjo1hvwqN9>JHDA2HQrd050l,0*78
$SDDBT,39.9,f,12.2,M,06.6,F*34
$SDDPT,12.2,-1.0,99.0*78
$HCHDG,331.3,00.0,E,00.0,E*40
$WIMWV,025.4,R,016.6,N,A*21
$VWVHW,129.0,T,129.0,M,07.7,N,14.3,K*52
$GPRMC,164522.05,A,4601.48394,N,00114.12038,W,0008.9,303.6,160316,0.0,W,A*0F
$GPGGA,164522.05,4601.48394,N,00114.12038,W,1,05,0.0,5,M,50.0,M,,*6B
$GPGSA,A,3,02,03,14,23,31,,,,,,,,5.5,0.0,6.7*34
$SDDBT,38.4,f,11.7,M,06.4,F*3C
$SDDPT,11.7,-1.0,99.0*7E
$HCHDG,331.3,00.0,E,00.0,E*40
$WIMWV,025.7,R,016.4,N,A*20
$VWVHW,129.0,T,129.0,M,07.7,N,14.3,K*52
$GPRMC,164523.15,A,4601.48531,N,00114.12335,W,0008.9,303.6,160316,0.0,W,A*08
$GPGGA,164523.15,4601.48531,N,00114.12335,W,1,05,0.0,5,M,50.0,M,,*6C
$GPGSA,A,3,02,03,14,23,31,,,,,,,,5.5,0.0,6.7*34
!AIVDM,1,1,,A,18vAfjo1hvwqN:VJHDE2HQrh050l,0*1B
$SDDBT,39.6,f,12.1,M,06.6,F*38
$SDDPT,12.1,-1.0,99.0*7B
$HCHDG,331.3,00.0,E,00.0,E*40
$WIMWV,025.2,R,016.3,N,A*22
$VWVHW,129.0,T,129.0,M,07.7,N,14.3,K*52
$GPRMC,164524.24,A,4601.48668,N,00114.12632,W,0008.9,303.6,160316,0.0,W,A*00
$GPGGA,164524.24,4601.48668,N,00114.12632,W,1,05,0.0,5,M,50.0,M,,*64
$GPGSA,A,3,02,03,14,23,31,,,,,,,,5.5,0.0,6.7*34
$SDDBT,38.0,f,11.6,M,06.3,F*3E
$SDDPT,11.6,-1.0,99.0*7F
$HCHDG,331.3,00.0,E,00.0,E*40
$WIMWV,025.3,R,016.7,N,A*27
$VWVHW,129.0,T,129.0,M,07.7,N,14.3,K*52
$GPRMC,164525.34,A,4601.48805,N,00114.12929,W,0008.9,303.6,160316,0.0,W,A*00
$GPGGA,164525.34,4601.48805,N,00114.12929,W,1,05,0.0,5,M,50.0,M,,*64
$GPGSA,A,3,02,03,14,23,31,,,,,,,,5.5,0.0,6.7*34
!AIVDM,2,1,9,A,57RbiVD1N0gP4U?:221@4pdE:2n0<h5=>062221A,0*2D
!AIVDM,2,2,9,A,FPD5N5`;d<Q1APEC588888888888882,2*4A
!AIVDM,1,1,,A,17RbiV@4QBwqj`NJHaNU2T2l050l,0*13
!AIVDM,1,1,,A,98vAVa:N38OqF:TJE3bia6P03P06,0*2B
!AIVDM,1,1,,A,H7RepeP<@?B2n0<h5=<:2222220,2*2E
!AIVDM,1,1,,A,H7RepeTTi000000343l000181130,0*70
!AIVDM,1,1,,A,B7RepeP0:OvVF1VUs1F@il=43P06,0*1D
!AIVDM,2,1,8,A,58vAfjl0Nm;<4U?F220HU<R0D5=V222222222200,0*22
!AIVDM,2,2,8,A,FPD5?4QAO<Q1APEC588888888888882,2*5B
!AIVDM,1,1,,A,18vAfjo1hvwqN;tJHDIBHQrl050l,0*40
$SDDBT,39.1,f,11.9,M,06.5,F*37
$SDDPT,11.9,-1.0,99.0*70
!AIVDM,1,1,,A,E>jCJWNQ<0hFh70c0TR@@@@@@@@?tdd6=2JB@10888e000,4*3C
$HCHDG,331.3,00.0,E,00.0,E*40
$WIMWV,025.2,R,016.6,N,A*27
$VWVHW,129.0,T,129.0,M,07.7,N,14.3,K*52
$GPRMC,164526.43,A,4601.48942,N,00114.13226,W,0008.9,303.6,160316,0.0,W,A*04
$GPGGA,164526.43,4601.48942,N,00114.13226,W,1,05,0.0,5,M,50.0,M,,*60
$GPGSA,A,3,02,03,14,23,31,,,,,,,,5.5,0.0,6.7*34
$SDDBT,37.6,f,11.5,M,06.3,F*34
$SDDPT,11.5,-1.0,99.0*7C
$HCHDG,331.3,00.0,E,00.0,E*40
$WIMWV,025.4,R,016.4,N,A*23
$VWVHW,129.0,T,129.0,M,07.7,N,14.3,K*52
!AIVDM,1,1,,A,18vAfjo1hvwqN=BJHDMRHQrp050l,0*78
$SDDBT,38.9,f,11.9,M,06.5,F*3E
$SDDPT,11.9,-1.0,99.0*70
$HCHDG,331.3,00.0,E,00.0,E*40
$WIMWV,025.4,R,016.3,N,A*24
$VWVHW,129.0,T,129.0,M,07.7,N,14.3,K*52
$GPRMC,164528.54,A,4601.49216,N,00114.13820,W,0008.9,303.6,160316,0.0,W,A*0B
$GPGGA,164528.54,4601.49216,N,00114.13820,W,1,05,0.0,5,M,50.0,M,,*6F
$GPGSA,A,3,02,03,14,23,31,,,,,,,,5.5,0.0,6.7*34
$SDDBT,39.0,f,11.9,M,06.5,F*36
$SDDPT,11.9,-1.0,99.0*70
$HCHDG,331.3,00.0,E,00.0,E*40
$WIMWV,025.6,R,016.8,N,A*2D
$VWVHW,129.0,T,129.0,M,07.7,N,14.3,K*52
$GPRMC,164529.62,A,4601.49353,N,00114.14117,W,0008.9,303.6,160316,0.0,W,A*05
$GPGGA,164529.62,4601.49353,N,00114.14117,W,1,05,0.0,5,M,50.0,M,,*61
$GPGSA,A,3,02,03,14,23,31,,,,,,,,5.5,0.0,6.7*34
!AIVDM,1,1,,A,18vAfjo1hvwqN>bJHDQRHQrt050l,0*43
$SDDBT,40.3,f,12.3,M,06.7,F*30
$SDDPT,12.3,-1.0,99.0*79
$HCHDG,331.3,00.0,E,00.0,E*40
$WIMWV,025.2,R,016.3,N,A*22
$VWVHW,129.0,T,129.0,M,07.7,N,14.3,K*52
$GPRMC,164530.72,A,4601.49490,N,00114.14414,W,0008.9,303.6,160316,0.0,W,A*02
$GPGGA,164530.72,4601.49490,N,00114.14414,W,1,05,0.0,5,M,50.0,M,,*66
$GPGSA,A,3,02,03,14,23,31,,,,,,,,5.5,0.0,6.7*34
!AIVDM,2,1,9,A,58vAfjl0Nm;<4U?F220HU<R0D5=V222222222200,0*23
!AIVDM,2,2,9,A,FPD5?4QAO<Q1APEC588888888888882,2*5A
$SDDBT,39.4,f,12.0,M,06.6,F*3B
$SDDPT,12.0,-1.0,99.0*7A
$HCHDG,331.3,00.0,E,00.0,E*40
$WIMWV,025.9,R,016.8,N,A*22
$VWVHW,129.0,T,129.0,M,07.7,N,14.3,K*52
$GPRMC,164531.80,A,4601.49627,N,00114.14711,W,0008.9,303.6,160316,0.0,W,A*06
$GPGGA,164531.80,4601.49627,N,00114.14711,W,1,05,0.0,5,M,50.0,M,,*62
$GPGSA,A,3,02,03,14,23,31,,,,,,,,5.5,0.0,6.7*34
!AIVDM,1,1,,A,18vAfjo1hvwqN@0JHDUjHQs0050l,0*16
$SDDBT,38.2,f,11.6,M,06.4,F*3B
$SDDPT,11.6,-1.0,99.0*7F
$HCHDG,331.3,00.0,E,00.0,E*40
$WIMWV,025.8,R,016.5,N,A*2E
$VWVHW,129.0,T,129.0,M,07.7,N,14.3,K*52
$GPRMC,164532.90,A,4601.49764,N,00114.15008,W,0008.9,303.6,160316,0.0,W,A*0C
$GPGGA,164532.90,4601.49764,N,00114.15008,W,1,05,0.0,5,M,50.0,M,,*68
$GPGSA,A,3,02,03,14,23,31,,,,,,,,5.5,0.0,6.7*34
$SDDBT,37.3,f,11.4,M,06.2,F*31
$SDDPT,11.4,-1.0,99.0*7D
$HCHDG,331.3,00.0,E,00.0,E*40
$WIMWV,025.9,R,016.7,N,A*2D
$VWVHW,129.0,T,129.0,M,07.7,N,14.3,K*52
$GPRMC,164533.99,A,4601.49901,N,00114.15305,W,0008.9,303.6,160316,0.0,W,A*07
$GPGGA,164533.99,4601.49901,N,00114.15305,W,1,05,0.0,5,M,50.0,M,,*63
$GPGSA,A,3,02,03,14,23,31,,,,,,,,5.5,0.0,6.7*34
!AIVDM,1,1,,A,18vAfjo1hvwqNAHJHDb2HQs4050l,0*04
$SDDBT,39.8,f,12.1,M,06.6,F*36
$SDDPT,12.1,-1.0,99.0*7B
$HCHDG,331.3,00.0,E,00.0,E*40
$WIMWV,025.5,R,016.8,N,A*2E
$VWVHW,129.0,T,129.0,M,07.7,N,14.3,K*52
$GPRMC,164534.08,A,4601.50038,N,00114.15602,W,0008.9,303.6,160316,0.0,W,A*01
$GPGGA,164534.08,4601.50038,N,00114.15602,W,1,05,0.0,5,M,50.0,M,,*65
$GPGSA,A,3,02,03,14,23,31,,,,,,,,5.5,0.0,6.7*34
$SDDBT,37.7,f,11.5,M,06.3,F*35
$SDDPT,11.5,-1.0,99.0*7C
$HCHDG,331.3,00.0,E,00.0,E*40
$WIMWV,025.4,R,016.6,N,A*21
$VWVHW,129.0,T,129.0,M,07.7,N,14.3,K*52
$GPRMC,164535.18,A,4601.50175,N,00114.15899,W,0008.9,303.6,160316,0.0,W,A*05
$GPGGA,164535.18,4601.50175,N,00114.15899,W,1,05,0.0,5,M,50.0,M,,*61
$GPGSA,A,3,02,03,14,23,31,,,,,,,,5.5,0.0,6.7*34
!AIVDM,2,1,0,A,57RbiVD1N0gP4U?:221@4pdE:2n0<h5=>062221A,0*24
!AIVDM,2,2,0,A,FPD5N5`;d<Q1APEC588888888888882,2*43
!AIVDM,1,1,,A,17RbiV@4QBwqjhLJH`rm2T38050l,0*49
!AIVDM,1,1,,A,98vAVa:N38OqHinJECk1a9003P06,0*02
!AIVDM,1,1,,A,H7RepeP<@?B2n0<h5=<:2222220,2*2E
!AIVDM,1,1,,A,H7RepeTTi000000343l000181130,0*70
!AIVDM,1,1,,A,B7RepeP0:OvVE16Urtr@ilB43P06,0*71
!AIVDM,2,1,0,A,58vAfjl0Nm;<4U?F220HU<R0D5=V222222222200,0*2A
!AIVDM,2,2,0,A,FPD5?4QAO<Q1APEC588888888888882,2*53
!AIVDM,1,1,,A,E>jCJWNQ<0hFh70c0TR@@@@@@@@?tdd6=2JB@10888j000,4*33
!AIVDM,1,1,,A,18vAfjo1hvwqNBfJHDf2HQs8050l,0*21
$SDDBT,36.8,f,11.2,M,06.1,F*3E
$SDDPT,11.2,-1.0,99.0*7B
$HCHDG,331.3,00.0,E,00.0,E*40
$WIMWV,025.8,R,016.4,N,A*2F
$VWVHW,129.0,T,129.0,M,07.7,N,14.3,K*52
$GPRMC,164536.28,A,4601.50312,N,00114.16196,W,0008.9,303.6,160316,0.0,W,A*03
$GPGGA,164536.28,4601.50312,N,00114.16196,W,1,05,0.0,5,M,50.0,M,,*67
$GPGSA,A,3,02,03,14,23,31,,,,,,,,5.5,0.0,6.7*34
$SDDBT,36.5,f,11.1,M,06.1,F*30
$SDDPT,11.1,-1.0,99.0*78
$HCHDG,331.3,00.0,E,00.0,E*40
$WIMWV,025.6,R,016.4,N,A*21
$VWVHW,129.0,T,129.0,M,07.7,N,14.3,K*52
$GPRMC,164537.36,A,4601.50449,N,00114.16493,W,0008.9,303.6,160316,0.0,W,A*04
$GPGGA,164537.36,4601.50449,N,00114.16493,W,1,05,0.0,5,M,50.0,M,,*60
$GPGSA,A,3,02,03,14,23,31,,,,,,,,5.5,0.0,6.7*34
!AIVDM,1,1,,A,18vAfjo1hvwqND4JHDjBHQs<050l,0*0D
$SDDBT,39.5,f,12.0,M,06.6,F*3A
$SDDPT,12.0,-1.0,99.0*7A
$HCHDG,331.3,00.0,E,00.0,E*40
$WIMWV,025.0,R,016.8,N,A*2B
$VWVHW,129.0,T,129.0,M,07.7,N,14.3,K*52
$GPRMC,164538.46,A,4601.50586,N,00114.16790,W,0008.9,303.6,160316,0.0,W,A*0E
$GPGGA,164538.46,4601.50586,N,00114.16790,W,1,05,0.0,5,M,50.0,M,,*6A
$GPGSA,A,3,02,03,14,23,31,,,,,,,,5.5,0.0,6.7*34
$SDDBT,37.4,f,11.4,M,06.2,F*36
$SDDPT,11.4,-1.0,99.0*7D
$HCHDG,331.3,00.0,E,00.0,E*40
$WIMWV,025.0,R,016.5,N,A*26
$VWVHW,129.0,T,129.0,M,07.7,N,14.3,K*52
!AIVDM,1,1,,A,18vAfjo1hvwqNELJHDnBHQs@050l,0*0C
$SDDBT,38.6,f,11.8,M,06.4,F*31
$SDDPT,11.8,-1.0,99.0*71
$HCHDG,331.3,00.0,E,00.0,E*40
$WIMWV,025.3,R,016.7,N,A*27
$VWVHW,129.0,T,129.0,M,07.7,N,14.3,K*52
$GPRMC,164540.57,A,4601.50860,N,00114.17384,W,0008.9,303.6,160316,0.0,W,A*04
$GPGGA,164540.57,4601.50860,N,00114.17384,W,1,05,0.0,5,M,50.0,M,,*60
$GPGSA,A,3,02,03,14,23,31,,,,,,,,5.5,0.0,6.7*34
!AIVDM,2,1,1,A,58vAfjl0Nm;<4U?F220HU<R0D5=V222222222200,0*2B
!AIVDM,2,2,1,A,FPD5?4QAO<Q1APEC588888888888882,2*52
$SDDBT,38.3,f,11.7,M,06.4,F*3B
$SDDPT,11.7,-1.0,99.0*7E
$HCHDG,331.3,00.0,E,00.0,E*40
$WIMWV,025.1,R,016.4,N,A*26
$VWVHW,129.0,T,129.0,M,07.7,N,14.3,K*52
$GPRMC,164541.65,A,4601.50997,N,00114.17681,W,0008.9,303.6,160316,0.0,W,A*0D
$GPGGA,164541.65,4601.50997,N,00114.17681,W,1,05,0.0,5,M,50.0,M,,*69
$GPGSA,A,3,02,03,14,23,31,,,,,,,,5.5,0.0,6.7*34
!AIVDM,1,1,,A,18vAfjo1hvwqNFjJHDrRHQsD050l,0*21
$SDDBT,39.5,f,12.0,M,06.6,F*3A
$SDDPT,12.0,-1.0,99.0*7A
$HCHDG,331.3,00.0,E,00.0,E*40
$WIMWV,025.3,R,016.5,N,A*25
$VWVHW,129.0,T,129.0,M,07.7,N,14.3,K*52
$GPRMC,164542.74,A,4601.51134,N,00114.17978,W,0008.9,303.6,160316,0.0,W,A*07
$GPGGA,164542.74,4601.51134,N,00114.17978,W,1,05,0.0,5,M,50.0,M,,*63
$GPGSA,A,3,02,03,14,23,31,,,,,,,,5.5,0.0,6.7*34
$SDDBT,38.9,f,11.9,M,06.5,F*3E
$SDDPT,11.9,-1.0,99.0*70
$HCHDG,331.3,00.0,E,00.0,E*40
$WIMWV,024.9,R,016.7,N,A*2C
$VWVHW,129.0,T,129.0,M,07.7,N,14.3,K*52
$GPRMC,164543.83,A,4601.51271,N,00114.18275,W,0008.9,303.6,160316,0.0,W,A*05
$GPGGA,164543.83,4601.51271,N,00114.18275,W,1,05,0.0,5,M,50.0,M,,*61
$GPGSA,A,3,02,03,14,23,31,,,,,,,,5.5,0.0,6.7*34
!AIVDM,1,1,,A,18vAfjo1hvwqNH:JHDvRHQsH050l,0*77
$SDDBT,39.7,f,12.1,M,06.6,F*39
$SDDPT,12.1,-1.0,99.0*7B
$HCHDG,331.3,00.0,E,00.0,E*40
$WIMWV,025.2,R,016.7,N,A*26
$VWVHW,129.0,T,129.0,M,07.7,N,14.3,K*52
$GPRMC,164544.94,A,4601.51408,N,00114.18572,W,0008.9,303.6,160316,0.0,W,A*0C
$GPGGA,164544.94,4601.51408,N,00114.18572,W,1,05,0.0,5,M,50.0,M,,*68
$GPGSA,A,3,02,03,14,23,31,,,,,,,,5.5,0.0,6.7*34
$SDDBT,37.8,f,11.5,M,06.3,F*3A
$SDDPT,11.5,-1.0,99.0*7C
$HCHDG,331.3,00.0,E,00.0,E*40
$WIMWV,025.7,R,016.8,N,A*2C
$VWVHW,129.0,T,129.0,M,07.7,N,14.3,K*52
$GPRMC,164545.02,A,4601.51545,N,00114.18869,W,0008.9,303.6,160316,0.0,W,A*0D
$GPGGA,164545.02,4601.51545,N,00114.18869,W,1,05,0.0,5,M,50.0,M,,*69
$GPGSA,A,3,02,03,14,23,31,,,,,,,,5.5,0.0,6.7*34
!AIVDM,2,1,1,A,57RbiVD1N0gP4U?:221@4pdE:2n0<h5=>062221A,0*25
!AIVDM,2,2,1,A,FPD5N5`;d<Q1APEC588888888888882,2*42
!AIVDM,1,1,,A,17RbiV@4QBwqjpJJH`G52T3L050l,0*4E
!AIVDM,1,1,,A,98vAVa:N38OqKI:JESsAa;P03P06,0*6F
!AIVDM,1,1,,A,H7RepeP<@?B2n0<h5=<:2222220,2*2E
!AIVDM,1,1,,A,H7RepeTTi000000343l000181130,0*70
!AIVDM,1,1,,A,B7RepeP0:OvVD0VUrpN@ilG43P06,0*2C
!AIVDM,2,1,2,A,58vAfjl0Nm;<4U?F220HU<R0D5=V222222222200,0*28
!AIVDM,2,2,2,A,FPD5?4QAO<Q1APEC588888888888882,2*51
!AIVDM,1,1,,A,E>jCJWNQ<0hFh70c0TR@@@@@@@@?tdd6=2JB@10888o000,4*36
!AIVDM,1,1,,A,18vAfjo1hvwqNIPJHE2jHQsL050l,0*65
$SDDBT,36.7,f,11.2,M,06.1,F*31
$SDDPT,11.2,-1.0,99.0*7B
$HCHDG,331.3,00.0,E,00.0,E*40
$WIMWV,024.9,R,016.7,N,A*2C
$VWVHW,129.0,T,129.0,M,07.7,N,14.3,K*52
$GPRMC,164546.12,A,4601.51682,N,00114.19166,W,0008.9,303.6,160316,0.0,W,A*00
$GPGGA,164546.12,4601.51682,N,00114.19166,W,1,05,0.0,5,M,50.0,M,,*64
$GPGSA,A,3,02,03,14,23,31,,,,,,,,5.5,0.0,6.7*34
$SDDBT,38.4,f,11.7,M,06.4,F*3C
$SDDPT,11.7,-1.0,99.0*7E
$HCHDG,331.3,00.0,E,00.0,E*40
$WIMWV,025.0,R,016.7,N,A*24
$VWVHW,129.0,T,129.0,M,07.7,N,14.3,K*52
$GPRMC,164547.21,A,4601.51819,N,00114.19463,W,0008.9,303.6,160316,0.0,W,A*0D
$GPGGA,164547.21,4601.51819,N,00114.19463,W,1,05,0.0,5,M,50.0,M,,*69
$GPGSA,A,3,02,03,14,23,31,,,,,,,,5.5,0.0,6.7*34
!AIVDM,1,1,,A,18vAfjo1hvwqNJnJHE72HQsP050l,0*19
$SDDBT,40.0,f,12.2,M,06.7,F*32
$SDDPT,12.2,-1.0,99.0*78
$HCHDG,331.3,00.0,E,00.0,E*40
$WIMWV,024.9,R,016.4,N,A*2F
$VWVHW,129.0,T,129.0,M,07.7,N,14.3,K*52
$GPRMC,164548.30,A,4601.51956,N,00114.19760,W,0008.9,303.6,160316,0.0,W,A*08
$GPGGA,164548.30,4601.51956,N,00114.19760,W,1,05,0.0,5,M,50.0,M,,*6C
$GPGSA,A,3,02,03,14,23,31,,,,,,,,5.5,0.0,6.7*34
$SDDBT,39.7,f,12.1,M,06.6,F*39
$SDDPT,12.1,-1.0,99.0*7B
$HCHDG,331.3,00.0,E,00.0,E*40
$WIMWV,025.1,R,016.8,N,A*2A
$VWVHW,129.0,T,129.0,M,07.7,N,14.3,K*52
$GPRMC,164549.40,A,4601.52093,N,00114.20057,W,0008.9,303.6,160316,0.0,W,A*04
$GPGGA,164549.40,4601.52093,N,00114.20057,W,1,05,0.0,5,M,50.0,M,,*60
$GPGSA,A,3,02,03,14,23,31,,,,,,,,5.5,0.0,6.7*34
!AIVDM,1,1,,A,18vAfjo1hvwqNL>JHE;2HQsT050l,0*47
$SDDBT,40.0,f,12.2,M,06.7,F*32
$SDDPT,12.2,-1.0,99.0*78
$HCHDG,331.3,00.0,E,00.0,E*40
$WIMWV,025.2,R,016.5,N,A*24
$VWVHW,129.0,T,129.0,M,07.7,N,14.3,K*52
!AIVDM,2,1,3,A,58vAfjl0Nm;<4U?F220HU<R0D5=V222222222200,0*29
!AIVDM,2,2,3,A,FPD5?4QAO<Q1APEC588888888888882,2*50
$SDDBT,38.2,f,11.6,M,06.4,F*3B
$SDDPT,11.6,-1.0,99.0*7F
$HCHDG,331.3,00.0,E,00.0,E*40
$WIMWV,024.9,R,016.7,N,A*2C
$GPRMC,164550.50,A,4601.52230,N,00114.20354,W,0008.9,303.6,160316,0.0,W,A*06
$GPGGA,164550.50,4601.52230,N,00114.20354,W,1,05,0.0,5,M,50.0,M,,*62
$GPGSA,A,3,02,03,14,23,31,,,,,,,,5.5,0.0,6.7*34
$VWVHW,129.0,T,129.0,M,07.7,N,14.3,K*52
!AIVDM,1,1,,A,18vAfjo1hvwqNMTJHE?BHQs`050l,0*6C
$SDDBT,39.7,f,12.1,M,06.6,F*39
$SDDPT,12.1,-1.0,99.0*7B
$HCHDG,331.3,00.0,E,00.0,E*40
$WIMWV,024.9,R,016.4,N,A*2F
$VWVHW,129.0,T,129.0,M,07.7,N,14.3,K*52
$GPRMC,164552.59,A,4601.52504,N,00114.20948,W,0008.9,303.6,160316,0.0,W,A*0A
$GPGGA,164552.59,4601.52504,N,00114.20948,W,1,05,0.0,5,M,50.0,M,,*6E
$GPGSA,A,3,02,03,14,23,31,,,,,,,,5.5,0.0,6.7*34
$SDDBT,40.1,f,12.2,M,06.7,F*33
$SDDPT,12.2,-1.0,99.0*78
$HCHDG,331.3,00.0,E,00.0,E*40
$WIMWV,025.2,R,016.5,N,A*24
$VWVHW,129.0,T,129.0,M,07.7,N,14.3,K*52
$GPRMC,164553.68,A,4601.52641,N,00114.21245,W,0008.9,303.6,160316,0.0,W,A*0C
$GPGGA,164553.68,4601.52641,N,00114.21245,W,1,05,0.0,5,M,50.0,M,,*68
$GPGSA,A,3,02,03,14,23,31,,,,,,,,5.5,0.0,6.7*34
!AIVDM,1,1,,A,18vAfjo1hvwqNNtJHECRHQsd050l,0*27
$SDDBT,37.3,f,11.4,M,06.2,F*31
$SDDPT,11.4,-1.0,99.0*7D
$HCHDG,331.3,00.0,E,00.0,E*40
$WIMWV,025.8,R,016.4,N,A*2F
$VWVHW,129.0,T,129.0,M,07.7,N,14.3,K*52
$GPRMC,164554.78,A,4601.52778,N,00114.21542,W,0008.9,303.6,160316,0.0,W,A*01
$GPGGA,164554.78,4601.52778,N,00114.21542,W,1,05,0.0,5,M,50.0,M,,*65
$GPGSA,A,3,02,03,14,23,31,,,,,,,,5.5,0.0,6.7*34
$SDDBT,40.1,f,12.2,M,06.7,F*33
$SDDPT,12.2,-1.0,99.0*78
$HCHDG,331.3,00.0,E,00.0,E*40
$WIMWV,025.1,R,016.3,N,A*21
$VWVHW,129.0,T,129.0,M,07.7,N,14.3,K*52
$GPRMC,164555.87,A,4601.52915,N,00114.21839,W,0008.9,303.6,160316,0.0,W,A*04
$GPGGA,164555.87,4601.52915,N,00114.21839,W,1,05,0.0,5,M,50.0,M,,*60
$GPGSA,A,3,02,03,14,23,31,,,,,,,,5.5,0.0,6.7*34
!AIVDM,2,1,2,A,57RbiVD1N0gP4U?:221@4pdE:2n0<h5=>062221A,0*26
!AIVDM,2,2,2,A,FPD5N5`;d<Q1APEC588888888888882,2*41
!AIVDM,1,1,,A,17RbiV@4QBwqk0HJHWkE2T3h050l,0*42
!AIVDM,1,1,,A,98vAVa:N38OqN0PJEl3Qa>003P06,0*73
!AIVDM,1,1,,A,H7RepeP<@?B2n0<h5=<:2222220,2*2E
!AIVDM,1,1,,A,H7RepeTTi000000343l000181130,0*70
!AIVDM,1,1,,A,B7RepeP0:OvVC06Url2@ilL43P06,0*20
!AIVDM,2,1,4,A,58vAfjl0Nm;<4U?F220HU<R0D5=V222222222200,0*2E
!AIVDM,2,2,4,A,FPD5?4QAO<Q1APEC588888888888882,2*57
!AIVDM,1,1,,A,E>jCJWNQ<0hFh70c0TR@@@@@@@@?tdd6=2JB@10888t000,4*2D
!AIVDM,1,1,,A,18vAfjo1hvwqNPBJHEGRHQsh050l,0*07
$SDDBT,38.4,f,11.7,M,06.4,F*3C
$SDDPT,11.7,-1.0,99.0*7E
$HCHDG,331.3,00.0,E,00.0,E*40
$WIMWV,025.2,R,016.3,N,A*22
$VWVHW,129.0,T,129.0,M,07.7,N,14.3,K*52
$GPRMC,164556.96,A,4601.53052,N,00114.22136,W,0008.9,303.6,160316,0.0,W,A*09
$GPGGA,164556.96,4601.53052,N,00114.22136,W,1,05,0.0,5,M,50.0,M,,*6D
$GPGSA,A,3,02,03,14,23,31,,,,,,,,5.5,0.0,6.7*34
$SDDBT,39.6,f,12.1,M,06.6,F*38
$SDDPT,12.1,-1.0,99.0*7B
$HCHDG,331.3,00.0,E,00.0,E*40
$WIMWV,025.8,R,016.8,N,A*23
$VWVHW,129.0,T,129.0,M,07.7,N,14.3,K*52
$GPRMC,164557.05,A,4601.53189,N,00114.22433,W,0008.9,303.6,160316,0.0,W,A*05
$GPGGA,164557.05,4601.53189,N,00114.22433,W,1,05,0.0,5,M,50.0,M,,*61
$GPGSA,A,3,02,03,14,23,31,,,,,,,,5.5,0.0,6.7*34
!AIVDM,1,1,,A,18vAfjo1hvwqNQ`JHEKjHQsl050l,0*14
$SDDBT,37.2,f,11.4,M,06.2,F*30
$SDDPT,11.4,-1.0,99.0*7D
$HCHDG,331.3,00.0,E,00.0,E*40
$WIMWV,025.1,R,016.3,N,A*21
$VWVHW,129.0,T,129.0,M,07.7,N,14.3,K*52
$GPRMC,164558.15,A,4601.53326,N,00114.22730,W,0008.9,303.6,160316,0.0,W,A*0C
$GPGGA,164558.15,4601.53326,N,00114.22730,W,1,05,0.0,5,M,50.0,M,,*68
$GPGSA,A,3,02,03,14,23,31,,,,,,,,5.5,0.0,6.7*34
$SDDBT,40.1,f,12.2,M,06.7,F*33
$SDDPT,12.2,-1.0,99.0*78
$HCHDG,331.3,00.0,E,00.0,E*40
$WIMWV,025.1,R,016.4,N,A*26
$VWVHW,129.0,T,129.0,M,07.7,N,14.3,K*52
$GPRMC,164559.24,A,4601.53463,N,00114.23027,W,0008.9,303.6,160316,0.0,W,A*09
$GPGGA,164559.24,4601.53463,N,00114.23027,W,1,05,0.0,5,M,50.0,M,,*6D
$GPGSA,A,3,02,03,14,23,31,,,,,,,,5.5,0.0,6.7*34
!AIVDM,1,1,,A,18vAfjo1hvwqNS0JHEOjHQr0050l,0*1F
$SDDBT,36.9,f,11.2,M,06.1,F*3F
$SDDPT,11.2,-1.0,99.0*7B
$HCHDG,331.3,00.0,E,00.0,E*40
$WIMWV,025.1,R,016.4,N,A*26
$VWVHW,129.0,T,129.0,M,07.7,N,14.3,K*52
$GPRMC,164600.33,A,4601.53600,N,00114.23324,W,0008.9,303.6,160316,0.0,W,A*07
$GPGGA,164600.33,4601.53600,N,00114.23324,W,1,05,0.0,5,M,50.0,M,,*63
$GPGSA,A,3,02,03,14,23,31,,,,,,,,5.5,0.0,6.7*34
!AIVDM,2,1,5,A,58vAfjl0Nm;<4U?F220HU<R0D5=V222222222200,0*2F
!AIVDM,2,2,5,A,FPD5?4QAO<Q1APEC588888888888882,2*56
$SDDBT,37.6,f,11.4,M,06.3,F*35
$SDDPT,11.4,-1.0,99.0*7D
$HCHDG,331.3,00.0,E,00.0,E*40
$WIMWV,025.0,R,016.8,N,A*2B
$VWVHW,129.0,T,129.0,M,07.7,N,14.3,K*52
$GPRMC,164601.43,A,4601.53737,N,00114.23621,W,0008.9,303.6,160316,0.0,W,A*04
$GPGGA,164601.43,4601.53737,N,00114.23621,W,1,05,0.0,5,M,50.0,M,,*60
$GPGSA,A,3,02,03,14,23,31,,,,,,,,5.5,0.0,6.7*34
!AIVDM,1,1,,A,18vAfjo1hvwqNTFJHET2HQr4050l,0*29
$SDDBT,38.2,f,11.6,M,06.4,F*3B
$SDDPT,11.6,-1.0,99.0*7F
$HCHDG,331.3,00.0,E,00.0,E*40
$WIMWV,025.7,R,016.4,N,A*20
$VWVHW,129.0,T,129.0,M,07.7,N,14.3,K*52
$SDDBT,39.8,f,12.1,M,06.6,F*36
$SDDPT,12.1,-1.0,99.0*7B
$HCHDG,331.3,00.0,E,00.0,E*40
$WIMWV,025.7,R,016.4,N,A*20
$VWVHW,129.0,T,129.0,M,07.7,N,14.3,K*52
$GPRMC,164603.56,A,4601.54011,N,00114.24215,W,0008.9,303.6,160316,0.0,W,A*02
$GPGGA,164603.56,4601.54011,N,00114.24215,W,1,05,0.0,5,M,50.0,M,,*66
$GPGSA,A,3,02,03,14,23,31,,,,,,,,5.5,0.0,6.7*34
!AIVDM,1,1,,A,18vAfjo1hvwqNUfJHE`2HQr8050l,0*30
$SDDBT,37.1,f,11.3,M,06.2,F*34
$SDDPT,11.3,-1.0,99.0*7A
$HCHDG,331.3,00.0,E,00.0,E*40
$WIMWV,025.3,R,016.6,N,A*26
$VWVHW,129.0,T,129.0,M,07.7,N,14.3,K*52
$GPRMC,164604.61,A,4601.54148,N,00114.24512,W,0008.9,303.6,160316,0.0,W,A*0C
$GPGGA,164604.61,4601.54148,N,00114.24512,W,1,05,0.0,5,M,50.0,M,,*68
$GPGSA,A,3,02,03,14,23,31,,,,,,,,5.5,0.0,6.7*34
$SDDBT,39.2,f,12.0,M,06.5,F*3E
$SDDPT,12.0,-1.0,99.0*7A
$HCHDG,331.3,00.0,E,00.0,E*40
$WIMWV,025.4,R,016.9,N,A*2E
$VWVHW,129.0,T,129.0,M,07.7,N,14.3,K*52
$GPRMC,164605.71,A,4601.54285,N,00114.24809,W,0008.9,303.6,160316,0.0,W,A*09
$GPGGA,164605.71,4601.54285,N,00114.24809,W,1,05,0.0,5,M,50.0,M,,*6D
$GPGSA,A,3,02,03,14,23,31,,,,,,,,5.5,0.0,6.7*34
!AIVDM,2,1,3,A,57RbiVD1N0gP4U?:221@4pdE:2n0<h5=>062221A,0*27
!AIVDM,2,2,3,A,FPD5N5`;d<Q1APEC588888888888882,2*40
!AIVDM,1,1,,A,17RbiV@4QBwqk8FJHW?U2T2<050l,0*55
!AIVDM,1,1,,A,98vAVa:N38OqPWlJF4;ia1P03P06,0*32
!AIVDM,1,1,,A,H7RepeP<@?B2n0<h5=<:2222220,2*2E
!AIVDM,1,1,,A,H7RepeTTi000000343l000181130,0*70
!AIVDM,1,1,,A,B7RepeP0:OvVAwVUrgV@il343P06,0*15
!AIVDM,2,1,6,A,58vAfjl0Nm;<4U?F220HU<R0D5=V222222222200,0*2C
!AIVDM,2,2,6,A,FPD5?4QAO<Q1APEC588888888888882,2*55
!AIVDM,1,1,,A,E>jCJWNQ<0hFh70c0TR@@@@@@@@?tdd6=2JB@10888S000,4*0A
!AIVDM,1,1,,A,18vAfjo1hvwqNW4JHEdBHQr<050l,0*10
$SDDBT,39.4,f,12.0,M,06.6,F*3B
$SDDPT,12.0,-1.0,99.0*7A
$HCHDG,331.3,00.0,E,00.0,E*40
$WIMWV,025.4,R,016.5,N,A*22
$VWVHW,129.0,T,129.0,M,07.7,N,14.3,K*52
$GPRMC,164606.81,A,4601.54422,N,00114.25106,W,0008.9,303.6,160316,0.0,W,A*09
$GPGGA,164606.81,4601.54422,N,00114.25106,W,1,05,0.0,5,M,50.0,M,,*6D
$GPGSA,A,3,02,03,14,23,31,,,,,,,,5.5,0.0,6.7*34
$SDDBT,37.3,f,11.4,M,06.2,F*31
$SDDPT,11.4,-1.0,99.0*7D
$HCHDG,331.3,00.0,E,00.0,E*40
$WIMWV,025.0,R,016.8,N,A*2B
$VWVHW,129.0,T,129.0,M,07.7,N,14.3,K*52
$GPRMC,164607.90,A,4601.54559,N,00114.25403,W,0008.9,303.6,160316,0.0,W,A*05
$GPGGA,164607.90,4601.54559,N,00114.25403,W,1,05,0.0,5,M,50.0,M,,*61
$GPGSA,A,3,02,03,14,23,31,,,,,,,,5.5,0.0,6.7*34
!AIVDM,1,1,,A,18vAfjo1hvwqN`JJHEhRHQr@050l,0*39
$SDDBT,36.9,f,11.2,M,06.1,F*3F
$SDDPT,11.2,-1.0,99.0*7B
$HCHDG,331.3,00.0,E,00.0,E*40
$WIMWV,025.8,R,016.6,N,A*2D
$VWVHW,129.0,T,129.0,M,07.7,N,14.3,K*52
$GPRMC,164608.99,A,4601.54696,N,00114.25700,W,0008.9,303.6,160316,0.0,W,A*03
$GPGGA,164608.99,4601.54696,N,00114.25700,W,1,05,0.0,5,M,50.0,M,,*67
$GPGSA,A,3,02,03,14,23,31,,,,,,,,5.5,0.0,6.7*34
$SDDBT,36.8,f,11.2,M,06.1,F*3E
$SDDPT,11.2,-1.0,99.0*7B
$HCHDG,331.3,00.0,E,00.0,E*40
$WIMWV,025.7,R,016.7,N,A*23
$VWVHW,231.6,T,231.6,M,07.7,N,14.3,K*52
$GPRMC,164609.08,A,4601.54833,N,00114.25997,W,0008.9,303.6,160316,0.0,W,A*0B
$GPGGA,164609.08,4601.54833,N,00114.25997,W,1,05,0.0,5,M,50.0,M,,*6F
$GPGSA,A,3,02,03,14,23,31,,,,,,,,5.5,0.0,6.7*34
!AIVDM,1,1,,A,18vAfjo1hvwqNajJHElRHQrD050l,0*18
$SDDBT,39.4,f,12.0,M,06.6,F*3B
$SDDPT,12.0,-1.0,99.0*7A
$HCHDG,331.3,00.0,E,00.0,E*40
$WIMWV,025.7,R,016.3,N,A*27
$VWVHW,231.6,T,231.6,M,07.7,N,14.3,K*52
$GPRMC,164610.19,A,4601.54970,N,00114.26294,W,0008.9,303.6,160316,0.0,W,A*0E
$GPGGA,164610.19,4601.54970,N,00114.26294,W,1,05,0.0,5,M,50.0,M,,*6A
$GPGSA,A,3,02,03,14,23,31,,,,,,,,5.5,0.0,6.7*34
!AIVDM,2,1,7,A,58vAfjl0Nm;<4U?F220HU<R0D5=V222222222200,0*2D
!AIVDM,2,2,7,A,FPD5?4QAO<Q1APEC588888888888882,2*54
$SDDBT,39.2,f,11.9,M,06.5,F*34
$SDDPT,11.9,-1.0,99.0*70
$HCHDG,331.3,00.0,E,00.0,E*40
$WIMWV,025.3,R,016.5,N,A*25
$VWVHW,231.6,T,231.6,M,07.7,N,14.3,K*52
$GPRMC,164611.27,A,4601.55107,N,00114.26591,W,0008.9,303.6,160316,0.0,W,A*09
$GPGGA,164611.27,4601.55107,N,00114.26591,W,1,05,0.0,5,M,50.0,M,,*6D
$GPGSA,A,3,02,03,14,23,31,,,,,,,,5.5,0.0,6.7*34
!AIVDM,1,1,,A,18vAfjo1hvwqNc8JHEpjHQrH050l,0*60
$SDDBT,38.5,f,11.7,M,06.4,F*3D
$SDDPT,11.7,-1.0,99.0*7E
$HCHDG,331.3,00.0,E,00.0,E*40
$WIMWV,025.6,R,016.6,N,A*23
$VWVHW,231.6,T,231.6,M,07.7,N,14.3,K*52
$GPRMC,164612.37,A,4601.55244,N,00114.26888,W,0008.9,303.6,160316,0.0,W,A*0A
$GPGGA,164612.37,4601.55244,N,00114.26888,W,1,05,0.0,5,M,50.0,M,,*6E
$GPGSA,A,3,02,03,14,23,31,,,,,,,,5.5,0.0,6.7*34
$SDDBT,38.3,f,11.7,M,06.4,F*3B
$SDDPT,11.7,-1.0,99.0*7E
$HCHDG,331.3,00.0,E,00.0,E*40
$WIMWV,025.8,R,016.8,N,A*23
$VWVHW,231.6,T,231.6,M,07.7,N,14.3,K*52
$GPRMC,164613.46,A,4601.55381,N,00114.27185,W,0008.9,303.6,160316,0.0,W,A*00
$GPGGA,164613.46,4601.55381,N,00114.27185,W,1,05,0.0,5,M,50.0,M,,*64
$GPGSA,A,3,02,03,14,23,31,,,,,,,,5.5,0.0,6.7*34
!AIVDM,1,1,,A,18vAfjo1hvwqNdPJHEu2HQrL050l,0*56
$SDDBT,39.6,f,12.1,M,06.6,F*38
$SDDPT,12.1,-1.0,99.0*7B
$HCHDG,331.3,00.0,E,00.0,E*40
$WIMWV,025.4,R,016.3,N,A*24
$VWVHW,231.6,T,231.6,M,07.7,N,14.3,K*52
$SDDBT,39.2,f,11.9,M,06.5,F*34
$SDDPT,11.9,-1.0,99.0*70
$HCHDG,331.3,00.0,E,00.0,E*40
$WIMWV,025.0,R,016.3,N,A*20
$VWVHW,231.6,T,231.6,M,07.7,N,14.3,K*52
$GPRMC,164615.56,A,4601.55655,N,00114.27779,W,0008.9,303.6,160316,0.0,W,A*0E
$GPGGA,164615.56,4601.55655,N,00114.27779,W,1,05,0.0,5,M,50.0,M,,*6A
$GPGSA,A,3,02,03,14,23,31,,,,,,,,5.5,0.0,6.7*34
!AIVDM,2,1,4,A,57RbiVD1N0gP4U?:221@4pdE:2n0<h5=>062221A,0*20
!AIVDM,2,2,4,A,FPD5N5`;d<Q1APEC588888888888882,2*47
!AIVDM,1,1,,A,17RbiV@4QBwqk@DJHVcm2T2P050l,0*26
!AIVDM,1,1,,A,98vAVa:N38OqS?<JFDD1a4003P06,0*3B
!AIVDM,1,1,,A,H7RepeP<@?B2n0<h5=<:2222220,2*2E
!AIVDM,1,1,,A,H7RepeTTi000000343l000181130,0*70
!AIVDM,1,1,,A,B7RepeP0BwvV@iVUrb>@il843P06,0*2C
!AIVDM,2,1,8,A,58vAfjl0Nm;<4U?F220HU<R0D5=V222222222200,0*22
!AIVDM,2,2,8,A,FPD5?4QAO<Q1APEC588888888888882,2*5B
!AIVDM,1,1,,A,E>jCJWNQ<0hFh70c0TR@@@@@@@@?tdd6=2JB@10888`000,4*39
!AIVDM,1,1,,A,18vAfjo1hvwqNenJHF12HQrP050l,0*32
$SDDBT,38.2,f,11.6,M,06.4,F*3B
$SDDPT,11.6,-1.0,99.0*7F
$HCHDG,331.3,00.0,E,00.0,E*40
$WIMWV,025.8,R,016.6,N,A*2D
$VWVHW,231.6,T,231.6,M,07.7,N,14.3,K*52
$GPRMC,164616.70,A,4601.55792,N,00114.28076,W,0008.9,303.6,160316,0.0,W,A*04
$GPGGA,164616.70,4601.55792,N,00114.28076,W,1,05,0.0,5,M,50.0,M,,*60
$GPGSA,A,3,02,03,14,23,31,,,,,,,,5.5,0.0,6.7*34
$SDDBT,38.1,f,11.6,M,06.3,F*3F
$SDDPT,11.6,-1.0,99.0*7F
$HCHDG,331.3,00.0,E,00.0,E*40
$WIMWV,025.5,R,016.3,N,A*25
$VWVHW,231.6,T,231.6,M,07.7,N,14.3,K*52
$GPRMC,164617.74,A,4601.55929,N,00114.28373,W,0008.9,303.6,160316,0.0,W,A*09
$GPGGA,164617.74,4601.55929,N,00114.28373,W,1,05,0.0,5,M,50.0,M,,*6D
$GPGSA,A,3,02,03,14,23,31,,,,,,,,5.5,0.0,6.7*34
!AIVDM,1,1,,A,18vAfjo1hvwqNg<JHF5BHQrT050l,0*12
$SDDBT,36.7,f,11.2,M,06.1,F*31
$SDDPT,11.2,-1.0,99.0*7B
$HCHDG,331.3,00.0,E,00.0,E*40
$WIMWV,025.7,R,016.8,N,A*2C
$VWVHW,231.6,T,231.6,M,07.7,N,14.3,K*52
$GPRMC,164618.83,A,4601.56066,N,00114.28670,W,0008.9,303.6,160316,0.0,W,A*09
$GPGGA,164618.83,4601.56066,N,00114.28670,W,1,05,0.0,5,M,50.0,M,,*6D
$GPGSA,A,3,02,03,14,23,31,,,,,,,,5.5,0.0,6.7*34
$SDDBT,39.7,f,12.1,M,06.6,F*39
$SDDPT,12.1,-1.0,99.0*7B
$HCHDG,331.3,00.0,E,00.0,E*40
$WIMWV,025.6,R,016.6,N,A*23
$VWVHW,231.6,T,231.6,M,07.7,N,14.3,K*52
$GPRMC,164619.93,A,4601.56203,N,00114.28967,W,0008.9,303.6,160316,0.0,W,A*01
$GPGGA,164619.93,4601.56203,N,00114.28967,W,1,05,0.0,5,M,50.0,M,,*65
$GPGSA,A,3,02,03,14,23,31,,,,,,,,5.5,0.0,6.7*34
!AIVDM,1,1,,A,18vAfjo1hvwqNhTJHF9BHQr`050l,0*4D
$SDDBT,37.0,f,11.3,M,06.2,F*35
$SDDPT,11.3,-1.0,99.0*7A
$HCHDG,331.3,00.0,E,00.0,E*40
$WIMWV,025.9,R,016.6,N,A*2C
$VWVHW,231.6,T,231.6,M,07.7,N,14.3,K*52
$GPRMC,164620.03,A,4601.56340,N,00114.29264,W,0008.9,303.6,160316,0.0,W,A*0D
$GPGGA,164620.03,4601.56340,N,00114.29264,W,1,05,0.0,5,M,50.0,M,,*69
$GPGSA,A,3,02,03,14,23,31,,,,,,,,5.5,0.0,6.7*34
!AIVDM,2,1,9,A,58vAfjl0Nm;<4U?F220HU<R0D5=V222222222200,0*23
!AIVDM,2,2,9,A,FPD5?4QAO<Q1APEC588888888888882,2*5A
$SDDBT,38.5,f,11.7,M,06.4,F*3D
$SDDPT,11.7,-1.0,99.0*7E
$HCHDG,331.3,00.0,E,00.0,E*40
$WIMWV,025.5,R,016.8,N,A*2E
$VWVHW,231.6,T,231.6,M,07.7,N,14.3,K*52
$GPRMC,164621.12,A,4601.56477,N,00114.29561,W,0008.9,303.6,160316,0.0,W,A*0D
$GPGGA,164621.12,4601.56477,N,00114.29561,W,1,05,0.0,5,M,50.0,M,,*69
$GPGSA,A,3,02,03,14,23,31,,,,,,,,5.5,0.0,6.7*34
!AIVDM,1,1,,A,18vAfjo1hvwqNirJHF=RHQrd050l,0*7A
$SDDBT,38.4,f,11.7,M,06.4,F*3C
$SDDPT,11.7,-1.0,99.0*7E
$HCHDG,331.3,00.0,E,00.0,E*40
$WIMWV,025.7,R,016.5,N,A*21
$VWVHW,231.6,T,231.6,M,07.7,N,14.3,K*52
$GPRMC,164622.21,A,4601.56614,N,00114.29858,W,0008.9,303.6,160316,0.0,W,A*0E
$GPGGA,164622.21,4601.56614,N,00114.29858,W,1,05,0.0,5,M,50.0,M,,*6A
$GPGSA,A,3,02,03,14,23,31,,,,,,,,5.5,0.0,6.7*34
$SDDBT,39.2,f,12.0,M,06.5,F*3E
$SDDPT,12.0,-1.0,99.0*7A
$HCHDG,331.3,00.0,E,00.0,E*40
$WIMWV,025.2,R,016.5,N,A*24
$VWVHW,231.6,T,231.6,M,07.7,N,14.3,K*52
$GPRMC,164623.31,A,4601.56751,N,00114.30155,W,0008.9,303.6,160316,0.0,W,A*02
$GPGGA,164623.31,4601.56751,N,00114.30155,W,1,05,0.0,5,M,50.0,M,,*66
$GPGSA,A,3,02,03,14,23,31,,,,,,,,5.5,0.0,6.7*34
!AIVDM,1,1,,A,18vAfjo1hvwqNkBJHFARHQrh050l,0*38
$SDDBT,39.6,f,12.1,M,06.6,F*38
$SDDPT,12.1,-1.0,99.0*7B
$HCHDG,331.3,00.0,E,00.0,E*40
$WIMWV,025.9,R,016.7,N,A*2D
$VWVHW,231.6,T,231.6,M,07.7,N,14.3,K*52
$GPRMC,164624.39,A,4601.56888,N,00114.30452,W,0008.9,303.6,160316,0.0,W,A*04
$GPGGA,164624.39,4601.56888,N,00114.30452,W,1,05,0.0,5,M,50.0,M,,*60
$GPGSA,A,3,02,03,14,23,31,,,,,,,,5.5,0.0,6.7*34
$SDDBT,38.6,f,11.8,M,06.4,F*31
$SDDPT,11.8,-1.0,99.0*71
$HCHDG,331.3,00.0,E,00.0,E*40
$WIMWV,025.5,R,016.5,N,A*23
$VWVHW,232.6,T,232.6,M,07.7,N,14.3,K*52
!AIVDM,2,1,5,A,57RbiVD1N0gP4U?:221@4pdE:2n0<h5=>062221A,0*21
!AIVDM,2,2,5,A,FPD5N5`;d<Q1APEC588888888888882,2*46
!AIVDM,1,1,,A,17RbiV@4QBwqkHBJHV852T2l050l,0*17
!AIVDM,1,1,,A,98vAVa:N38OqUnVJFTLAa6P03P06,0*0C
!AIVDM,1,1,,A,H7RepeP<@?B2n0<h5=<:2222220,2*2E
!AIVDM,1,1,,A,H7RepeTTi000000343l000181130,0*70
!AIVDM,1,1,,A,B7RepeP0BwvV>sVUrR:Bame43P06,0*2A
!AIVDM,2,1,0,A,58vAfjl0Nm;<4U?F220HU<R0D5=V222222222200,0*2A
!AIVDM,2,2,0,A,FPD5?4QAO<Q1APEC588888888888882,2*53
!AIVDM,1,1,,A,E>jCJWNQ<0hFh70c0TR@@@@@@@@?tdd6=2JB@10888e000,4*3C
!AIVDM,1,1,,A,18vAfjo1hvwqNl`JHFEjHQrl050l,0*25
$SDDBT,39.3,f,12.0,M,06.6,F*3C
$SDDPT,12.0,-1.0,99.0*7A
$HCHDG,331.3,00.0,E,00.0,E*40
$WIMWV,025.3,R,016.5,N,A*25
$GPRMC,164625.65,A,4601.57025,N,00114.30749,W,0008.9,303.6,160316,0.0,W,A*0B
$GPGGA,164625.65,4601.57025,N,00114.30749,W,1,05,0.0,5,M,50.0,M,,*6F
$GPGSA,A,3,02,03,14,23,31,,,,,,,,5.5,0.0,6.7*34
$VWVHW,234.6,T,234.6,M,07.7,N,14.3,K*52
$SDDBT,37.5,f,11.4,M,06.3,F*36
$SDDPT,11.4,-1.0,99.0*7D
$HCHDG,331.3,00.0,E,00.0,E*40
$WIMWV,025.7,R,016.5,N,A*21
$VWVHW,240.6,T,240.6,M,07.7,N,14.3,K*52
$GPRMC,164627.59,A,4601.57299,N,00114.31343,W,0008.9,303.6,160316,0.0,W,A*0C
$GPGGA,164627.59,4601.57299,N,00114.31343,W,1,05,0.0,5,M,50.0,M,,*68
$GPGSA,A,3,02,03,14,23,31,,,,,,,,5.5,0.0,6.7*34
!AIVDM,1,1,,A,18vAfjo1hvwqNmvJHFJ2HQrp050l,0*79
$SDDBT,37.4,f,11.4,M,06.2,F*36
$SDDPT,11.4,-1.0,99.0*7D
$HCHDG,331.3,00.0,E,00.0,E*40
$WIMWV,024.9,R,016.6,N,A*2D
$VWVHW,240.6,T,240.6,M,07.7,N,14.3,K*52
$GPRMC,164628.68,A,4601.57436,N,00114.31640,W,0008.9,303.6,160316,0.0,W,A*04
$GPGGA,164628.68,4601.57436,N,00114.31640,W,1,05,0.0,5,M,50.0,M,,*60
$GPGSA,A,3,02,03,14,23,31,,,,,,,,5.5,0.0,6.7*34
$SDDBT,37.8,f,11.5,M,06.3,F*3A
$SDDPT,11.5,-1.0,99.0*7C
$HCHDG,331.3,00.0,E,00.0,E*40
$WIMWV,025.3,R,016.9,N,A*29
$VWVHW,240.6,T,240.6,M,07.7,N,14.3,K*52
$GPRMC,164629.77,A,4601.57573,N,00114.31937,W,0008.9,303.6,160316,0.0,W,A*04
$GPGGA,164629.77,4601.57573,N,00114.31937,W,1,05,0.0,5,M,50.0,M,,*60
$GPGSA,A,3,02,03,14,23,31,,,,,,,,5.5,0.0,6.7*34
!AIVDM,1,1,,A,18vAfjo1hvwqNoFJHFN2HQrt050l,0*4B
$SDDBT,39.7,f,12.1,M,06.6,F*39
$SDDPT,12.1,-1.0,99.0*7B
$HCHDG,331.3,00.0,E,00.0,E*40
$WIMWV,025.7,R,016.3,N,A*27
$VWVHW,240.6,T,240.6,M,07.7,N,14.3,K*52
$GPRMC,164630.86,A,4601.57710,N,00114.32234,W,0008.9,303.6,160316,0.0,W,A*0E
$GPGGA,164630.86,4601.57710,N,00114.32234,W,1,05,0.0,5,M,50.0,M,,*6A
$GPGSA,A,3,02,03,14,23,31,,,,,,,,5.5,0.0,6.7*34
!AIVDM,2,1,1,A,58vAfjl0Nm;<4U?F220HU<R0D5=V222222222200,0*2B
!AIVDM,2,2,1,A,FPD5?4QAO<Q1APEC588888888888882,2*52
$SDDBT,38.0,f,11.6,M,06.3,F*3E
$SDDPT,11.6,-1.0,99.0*7F
$HCHDG,331.3,00.0,E,00.0,E*40
$WIMWV,025.5,R,016.5,N,A*23
$VWVHW,240.6,T,240.6,M,07.7,N,14.3,K*52
$GPRMC,164631.96,A,4601.57847,N,00114.32531,W,0008.9,303.6,160316,0.0,W,A*01
$GPGGA,164631.96,4601.57847,N,00114.32531,W,1,05,0.0,5,M,50.0,M,,*65
$GPGSA,A,3,02,03,14,23,31,,,,,,,,5.5,0.0,6.7*34
!AIVDM,1,1,,A,18vAfjo1hvwqNpdJHFRBHQs0050l,0*5F
$SDDBT,36.7,f,11.2,M,06.1,F*31
$SDDPT,11.2,-1.0,99.0*7B
$HCHDG,331.3,00.0,E,00.0,E*40
$WIMWV,025.1,R,016.6,N,A*24
$VWVHW,240.6,T,240.6,M,07.7,N,14.3,K*52
$GPRMC,164632.05,A,4601.57984,N,00114.32828,W,0008.9,303.6,160316,0.0,W,A*03
$GPGGA,164632.05,4601.57984,N,00114.32828,W,1,05,0.0,5,M,50.0,M,,*67
$GPGSA,A,3,02,03,14,23,31,,,,,,,,5.5,0.0,6.7*34
$SDDBT,39.9,f,12.1,M,06.6,F*37
$SDDPT,12.1,-1.0,99.0*7B
$HCHDG,331.3,00.0,E,00.0,E*40
$WIMWV,025.8,R,016.9,N,A*22
$VWVHW,240.6,T,240.6,M,07.7,N,14.3,K*52
$GPRMC,164633.15,A,4601.58121,N,00114.33125,W,0008.9,303.6,160316,0.0,W,A*0E
$GPGGA,164633.15,4601.58121,N,00114.33125,W,1,05,0.0,5,M,50.0,M,,*6A
$GPGSA,A,3,02,03,14,23,31,,,,,,,,5.5,0.0,6.7*34
!AIVDM,1,1,,A,18vAfjo1hvwqNr4JHFVRHQs4050l,0*1D
$SDDBT,36.5,f,11.1,M,06.1,F*30
$SDDPT,11.1,-1.0,99.0*78
$HCHDG,331.3,00.0,E,00.0,E*40
$WIMWV,025.3,R,016.5,N,A*25
$VWVHW,240.6,T,240.6,M,07.7,N,14.3,K*52
$GPRMC,164634.24,A,4601.58258,N,00114.33422,W,0008.9,303.6,160316,0.0,W,A*04
$GPGGA,164634.24,4601.58258,N,00114.33422,W,1,05,0.0,5,M,50.0,M,,*60
$GPGSA,A,3,02,03,14,23,31,,,,,,,,5.5,0.0,6.7*34
$SDDBT,37.0,f,11.3,M,06.2,F*35
$SDDPT,11.3,-1.0,99.0*7A
$HCHDG,331.3,00.0,E,00.0,E*40
$WIMWV,025.2,R,016.4,N,A*25
$VWVHW,240.6,T,240.6,M,07.7,N,14.3,K*52
$GPRMC,164635.33,A,4601.58395,N,00114.33719,W,0008.9,303.6,160316,0.0,W,A*08
$GPGGA,164635.33,4601.58395,N,00114.33719,W,1,05,0.0,5,M,50.0,M,,*6C
$GPGSA,A,3,02,03,14,23,31,,,,,,,,5.5,0.0,6.7*34
!AIVDM,2,1,6,A,57RbiVD1N0gP4U?:221@4pdE:2n0<h5=>062221A,0*22
!AIVDM,2,2,6,A,FPD5N5`;d<Q1APEC588888888888882,2*45
!AIVDM,1,1,,A,17RbiV@4QBwqkP@JHUTE2T38050l,0*47
!AIVDM,1,1,,A,98vAVa:N38Oq`N0JFlTQa9003P06,0*20
!AIVDM,1,1,,A,H7RepeP<@?B2n0<h5=<:2222220,2*2E
!AIVDM,1,1,,A,H7RepeTTi000000343l000181130,0*70
!AIVDM,1,1,,A,B7RepeP0BwvV<qVUrKbFIpj43P06,0*55
!AIVDM,2,1,2,A,58vAfjl0Nm;<4U?F220HU<R0D5=V222222222200,0*28
!AIVDM,2,2,2,A,FPD5?4QAO<Q1APEC588888888888882,2*51
!AIVDM,1,1,,A,E>jCJWNQ<0hFh70c0TR@@@@@@@@?tdd6=2JB@10888j000,4*33
!AIVDM,1,1,,A,18vAfjo1hvwqNsJJHFbRHQs8050l,0*5A
$SDDBT,38.9,f,11.8,M,06.5,F*3F
$SDDPT,11.8,-1.0,99.0*71
$HCHDG,331.3,00.0,E,00.0,E*40
$WIMWV,025.7,R,016.4,N,A*20
$VWVHW,240.6,T,240.6,M,07.7,N,14.3,K*52
$GPRMC,164636.43,A,4601.58532,N,00114.34016,W,0008.9,303.6,160316,0.0,W,A*08
$GPGGA,164636.43,4601.58532,N,00114.34016,W,1,05,0.0,5,M,50.0,M,,*6C
$GPGSA,A,3,02,03,14,23,31,,,,,,,,5.5,0.0,6.7*34
$SDDBT,36.9,f,11.3,M,06.2,F*3D
$SDDPT,11.3,-1.0,99.0*7A
$HCHDG,331.3,00.0,E,00.0,E*40
$WIMWV,025.8,R,016.8,N,A*23
$VWVHW,240.6,T,240.6,M,07.7,N,14.3,K*52
!AIVDM,1,1,,A,18vAfjo1hvwqNthJHFfjHQs<050l,0*47
$SDDBT,37.7,f,11.5,M,06.3,F*35
$SDDPT,11.5,-1.0,99.0*7C
$HCHDG,331.3,00.0,E,00.0,E*40
$WIMWV,025.2,R,016.6,N,A*27
$VWVHW,240.6,T,240.6,M,07.7,N,14.3,K*52
$GPRMC,164638.57,A,4601.58806,N,00114.34610,W,0008.9,303.6,160316,0.0,W,A*09
$GPGGA,164638.57,4601.58806,N,00114.34610,W,1,05,0.0,5,M,50.0,M,,*6D
$GPGSA,A,3,02,03,14,23,31,,,,,,,,5.5,0.0,6.7*34
$SDDBT,39.6,f,12.1,M,06.6,F*38
$SDDPT,12.1,-1.0,99.0*7B
$HCHDG,331.3,00.0,E,00.0,E*40
$WIMWV,025.6,R,016.8,N,A*2D
$VWVHW,240.6,T,240.6,M,07.7,N,14.3,K*52
$GPRMC,164639.62,A,4601.58943,N,00114.34907,W,0008.9,303.6,160316,0.0,W,A*07
$GPGGA,164639.62,4601.58943,N,00114.34907,W,1,05,0.0,5,M,50.0,M,,*63
$GPGSA,A,3,02,03,14,23,31,,,,,,,,5.5,0.0,6.7*34
!AIVDM,1,1,,A,18vAfjo1hvwqNv8JHFjjHQs@050l,0*65
$SDDBT,38.1,f,11.6,M,06.4,F*38
$SDDPT,11.6,-1.0,99.0*7F
$HCHDG,331.3,00.0,E,00.0,E*40
$WIMWV,025.1,R,016.6,N,A*24
$VWVHW,240.6,T,240.6,M,07.7,N,14.3,K*52
$GPRMC,164640.71,A,4601.59080,N,00114.35204,W,0008.9,303.6,160316,0.0,W,A*05
$GPGGA,164640.71,4601.59080,N,00114.35204,W,1,05,0.0,5,M,50.0,M,,*61
$GPGSA,A,3,02,03,14,23,31,,,,,,,,5.5,0.0,6.7*34
!AIVDM,2,1,3,A,58vAfjl0Nm;<4U?F220HU<R0D5=V222222222200,0*29
!AIVDM,2,2,3,A,FPD5?4QAO<Q1APEC588888888888882,2*50
$SDDBT,37.4,f,11.4,M,06.2,F*36
$SDDPT,11.4,-1.0,99.0*7D
$HCHDG,331.3,00.0,E,00.0,E*40
$WIMWV,025.9,R,016.5,N,A*2F
$VWVHW,240.6,T,240.6,M,07.7,N,14.3,K*52
$GPRMC,164641.80,A,4601.59217,N,00114.35501,W,0008.9,303.6,160316,0.0,W,A*04
$GPGGA,164641.80,4601.59217,N,00114.35501,W,1,05,0.0,5,M,50.0,M,,*60
$GPGSA,A,3,02,03,14,23,31,,,,,,,,5.5,0.0,6.7*34
!AIVDM,1,1,,A,18vAfjo1hvwqNwNJHFo2HQsD050l,0*4B
$SDDBT,38.4,f,11.7,M,06.4,F*3C
$SDDPT,11.7,-1.0,99.0*7E
$HCHDG,331.3,00.0,E,00.0,E*40
$WIMWV,025.7,R,016.6,N,A*22
$VWVHW,240.6,T,240.6,M,07.7,N,14.3,K*52
$GPRMC,164642.90,A,4601.59354,N,00114.35798,W,0008.9,303.6,160316,0.0,W,A*02
$GPGGA,164642.90,4601.59354,N,00114.35798,W,1,05,0.0,5,M,50.0,M,,*66
$GPGSA,A,3,02,03,14,23,31,,,,,,,,5.5,0.0,6.7*34
$SDDBT,37.8,f,11.5,M,06.3,F*3A
$SDDPT,11.5,-1.0,99.0*7C
$HCHDG,331.3,00.0,E,00.0,E*40
$WIMWV,025.1,R,016.5,N,A*27
$VWVHW,240.6,T,240.6,M,07.7,N,14.3,K*52
$GPRMC,164643.99,A,4601.59491,N,00114.36095,W,0008.9,303.6,160316,0.0,W,A*0D
$GPGGA,164643.99,4601.59491,N,00114.36095,W,1,05,0.0,5,M,50.0,M,,*69
$GPGSA,A,3,02,03,14,23,31,,,,,,,,5.5,0.0,6.7*34
!AIVDM,1,1,,A,18vAfjo1hvwqO0nJHFs2HQsH050l,0*3D
$SDDBT,37.2,f,11.3,M,06.2,F*37
$SDDPT,11.3,-1.0,99.0*7A
$HCHDG,331.3,00.0,E,00.0,E*40
$WIMWV,025.2,R,016.8,N,A*29
$VWVHW,240.6,T,240.6,M,07.7,N,14.3,K*52
$GPRMC,164644.09,A,4601.59628,N,00114.36392,W,0008.9,303.6,160316,0.0,W,A*07
$GPGGA,164644.09,4601.59628,N,00114.36392,W,1,05,0.0,5,M,50.0,M,,*63
$GPGSA,A,3,02,03,14,23,31,,,,,,,,5.5,0.0,6.7*34
$SDDBT,36.7,f,11.2,M,06.1,F*31
$SDDPT,11.2,-1.0,99.0*7B
$HCHDG,331.3,00.0,E,00.0,E*40
$WIMWV,025.6,R,016.9,N,A*2C
$VWVHW,240.6,T,240.6,M,07.7,N,14.3,K*52
$GPRMC,164645.18,A,4601.59765,N,00114.36689,W,0008.9,303.6,160316,0.0,W,A*01
$GPGGA,164645.18,4601.59765,N,00114.36689,W,1,05,0.0,5,M,50.0,M,,*65
$GPGSA,A,3,02,03,14,23,31,,,,,,,,5.5,0.0,6.7*34
!AIVDM,2,1,7,A,57RbiVD1N0gP4U?:221@4pdE:2n0<h5=>062221A,0*23
!AIVDM,2,2,7,A,FPD5N5`;d<Q1APEC588888888888882,2*44
!AIVDM,1,1,,A,17RbiV@4QBwqk`>JHU0U2T3L050l,0*09
!AIVDM,1,1,,A,98vAVa:N38Oqc5JJG4dia;P03P06,0*11
!AIVDM,1,1,,A,H7RepeP<@?B2n0<h5=<:2222220,2*2E
!AIVDM,1,1,,A,H7RepeTTi000000343l000181130,0*70
!AIVDM,1,1,,A,B7RepeP0FgvV:aVUrDbFIpo43P06,0*5D
!AIVDM,2,1,4,A,58vAfjl0Nm;<4U?F220HU<R0D5=V222222222200,0*2E
!AIVDM,2,2,4,A,FPD5?4QAO<Q1APEC588888888888882,2*57
!AIVDM,1,1,,A,E>jCJWNQ<0hFh70c0TR@@@@@@@@?tdd6=2JB@10888o000,4*36
!AIVDM,1,1,,A,18vAfjo1hvwqO2<JHFwBHQsL050l,0*1D
$SDDBT,39.7,f,12.1,M,06.6,F*39
$SDDPT,12.1,-1.0,99.0*7B
$HCHDG,331.3,00.0,E,00.0,E*40
$WIMWV,025.4,R,016.7,N,A*20
$VWVHW,240.6,T,240.6,M,07.7,N,14.3,K*52
$GPRMC,164646.28,A,4601.59902,N,00114.36986,W,0008.9,303.6,160316,0.0,W,A*0E
$GPGGA,164646.28,4601.59902,N,00114.36986,W,1,05,0.0,5,M,50.0,M,,*6A
$GPGSA,A,3,02,03,14,23,31,,,,,,,,5.5,0.0,6.7*34
$SDDBT,37.5,f,11.4,M,06.3,F*36
$SDDPT,11.4,-1.0,99.0*7D
$HCHDG,331.3,00.0,E,00.0,E*40
$WIMWV,025.0,R,016.6,N,A*25
$VWVHW,240.6,T,240.6,M,07.7,N,14.3,K*52
$GPRMC,164647.37,A,4601.60039,N,00114.37283,W,0008.9,303.6,160316,0.0,W,A*05
$GPGGA,164647.37,4601.60039,N,00114.37283,W,1,05,0.0,5,M,50.0,M,,*61
$GPGSA,A,3,02,03,14,23,31,,,,,,,,5.5,0.0,6.7*34
!AIVDM,1,1,,A,18vAfjo1hvwqO3RJHG3RHQsP050l,0*3B
$SDDBT,36.6,f,11.1,M,06.1,F*33
$SDDPT,11.1,-1.0,99.0*78
$HCHDG,331.3,00.0,E,00.0,E*40
$WIMWV,025.4,R,016.8,N,A*2F
$VWVHW,240.6,T,240.6,M,07.7,N,14.3,K*52
$GPRMC,164648.47,A,4601.60176,N,00114.37580,W,0008.9,303.6,160316,0.0,W,A*03
$GPGGA,164648.47,4601.60176,N,00114.37580,W,1,05,0.0,5,M,50.0,M,,*67
$GPGSA,A,3,02,03,14,23,31,,,,,,,,5.5,0.0,6.7*34
$SDDBT,39.7,f,12.1,M,06.6,F*39
$SDDPT,12.1,-1.0,99.0*7B
$HCHDG,331.3,00.0,E,00.0,E*40
$WIMWV,025.4,R,016.5,N,A*22
$VWVHW,240.6,T,240.6,M,07.7,N,14.3,K*52
!AIVDM,1,1,,A,18vAfjo1hvwqO4rJHG7RHQsT050l,0*1C
$SDDBT,39.3,f,12.0,M,06.6,F*3C
$SDDPT,12.0,-1.0,99.0*7A
$HCHDG,331.3,00.0,E,00.0,E*40
$WIMWV,025.6,R,016.5,N,A*20
$VWVHW,240.6,T,240.6,M,07.7,N,14.3,K*52
$GPRMC,164650.55,A,4601.60450,N,00114.38174,W,0008.9,303.6,160316,0.0,W,A*08
$GPGGA,164650.55,4601.60450,N,00114.38174,W,1,05,0.0,5,M,50.0,M,,*6C
$GPGSA,A,3,02,03,14,23,31,,,,,,,,5.5,0.0,6.7*34
!AIVDM,2,1,5,A,58vAfjl0Nm;<4U?F220HU<R0D5=V222222222200,0*2F
!AIVDM,2,2,5,A,FPD5?4QAO<Q1APEC588888888888882,2*56
$SDDBT,38.2,f,11.7,M,06.4,F*3A
$SDDPT,11.7,-1.0,99.0*7E
$HCHDG,331.3,00.0,E,00.0,E*40
$WIMWV,024.9,R,016.6,N,A*2D
$VWVHW,240.6,T,240.6,M,07.7,N,14.3,K*52
$GPRMC,164651.65,A,4601.60587,N,00114.38471,W,0008.9,303.6,160316,0.0,W,A*01
$GPGGA,164651.65,4601.60587,N,00114.38471,W,1,05,0.0,5,M,50.0,M,,*65
$GPGSA,A,3,02,03,14,23,31,,,,,,,,5.5,0.0,6.7*34
!AIVDM,1,1,,A,18vAfjo1hvwqO6@JHG;jHQs`050l,0*2C
$SDDBT,39.6,f,12.1,M,06.6,F*38
$SDDPT,12.1,-1.0,99.0*7B
$HCHDG,331.3,00.0,E,00.0,E*40
$WIMWV,025.6,R,016.8,N,A*2D
$VWVHW,240.6,T,240.6,M,07.7,N,14.3,K*52
$GPRMC,164652.74,A,4601.60724,N,00114.38768,W,0008.9,303.6,160316,0.0,W,A*02
$GPGGA,164652.74,4601.60724,N,00114.38768,W,1,05,0.0,5,M,50.0,M,,*66
$GPGSA,A,3,02,03,14,23,31,,,,,,,,5.5,0.0,6.7*34
$SDDBT,38.6,f,11.8,M,06.4,F*31
$SDDPT,11.8,-1.0,99.0*71
$HCHDG,331.3,00.0,E,00.0,E*40
$WIMWV,025.8,R,016.6,N,A*2D
$VWVHW,240.6,T,240.6,M,07.7,N,14.3,K*52
$GPRMC,164653.83,A,4601.60861,N,00114.39065,W,0008.9,303.6,160316,0.0,W,A*0E
$GPGGA,164653.83,4601.60861,N,00114.39065,W,1,05,0.0,5,M,50.0,M,,*6A
$GPGSA,A,3,02,03,14,23,31,,,,,,,,5.5,0.0,6.7*34
!AIVDM,1,1,,A,18vAfjo1hvwqO7`JHG@2HQsd050l,0*2A
$SDDBT,39.7,f,12.1,M,06.6,F*39
$SDDPT,12.1,-1.0,99.0*7B
$HCHDG,331.3,00.0,E,00.0,E*40
$WIMWV,025.6,R,016.6,N,A*23
$VWVHW,240.6,T,240.6,M,07.7,N,14.3,K*52
$GPRMC,164654.93,A,4601.60998,N,00114.39362,W,0008.9,303.6,160316,0.0,W,A*0B
$GPGGA,164654.93,4601.60998,N,00114.39362,W,1,05,0.0,5,M,50.0,M,,*6F
$GPGSA,A,3,02,03,14,23,31,,,,,,,,5.5,0.0,6.7*34
$SDDBT,37.0,f,11.3,M,06.2,F*35
$SDDPT,11.3,-1.0,99.0*7A
$HCHDG,331.3,00.0,E,00.0,E*40
$WIMWV,025.3,R,016.5,N,A*25
$VWVHW,240.6,T,240.6,M,07.7,N,14.3,K*52
$GPRMC,164655.02,A,4601.61135,N,00114.39659,W,0008.9,303.6,160316,0.0,W,A*01
$GPGGA,164655.02,4601.61135,N,00114.39659,W,1,05,0.0,5,M,50.0,M,,*65
$GPGSA,A,3,02,03,14,23,31,,,,,,,,5.5,0.0,6.7*34
!AIVDM,2,1,8,A,57RbiVD1N0gP4U?:221@4pdE:2n0<h5=>062221A,0*2C
!AIVDM,2,2,8,A,FPD5N5`;d<Q1APEC588888888888882,2*4B
!AIVDM,1,1,,A,17RbiV@4QBwqkh<JHTLm2T3h050l,0*62
!AIVDM,1,1,,A,98vAVa:N38OqedpJGDm1a>003P06,0*38
!AIVDM,1,1,,A,H7RepeP<@?B2n0<h5=<:2222220,2*2E
!AIVDM,1,1,,A,H7RepeTTi000000343l000181130,0*70
!AIVDM,1,1,,A,B7RepeP0FwvV8:VUr<rFIpt43P06,0*67
!AIVDM,2,1,6,A,58vAfjl0Nm;<4U?F220HU<R0D5=V222222222200,0*2C
!AIVDM,2,2,6,A,FPD5?4QAO<Q1APEC588888888888882,2*55
!AIVDM,1,1,,A,E>jCJWNQ<0hFh70c0TR@@@@@@@@?tdd6=2JB@10888t000,4*2D
!AIVDM,1,1,,A,18vAfjo1hvwqO8vJHGD2HQsh050l,0*3B
$SDDBT,37.7,f,11.5,M,06.3,F*35
$SDDPT,11.5,-1.0,99.0*7C
$HCHDG,331.3,00.0,E,00.0,E*40
$WIMWV,025.7,R,016.8,N,A*2C
$VWVHW,240.6,T,240.6,M,07.7,N,14.3,K*52
$GPRMC,164656.11,A,4601.61272,N,00114.39956,W,0008.9,303.6,160316,0.0,W,A*00
$GPGGA,164656.11,4601.61272,N,00114.39956,W,1,05,0.0,5,M,50.0,M,,*64
$GPGSA,A,3,02,03,14,23,31,,,,,,,,5.5,0.0,6.7*34
$SDDBT,40.0,f,12.2,M,06.7,F*32
$SDDPT,12.2,-1.0,99.0*78
$HCHDG,331.3,00.0,E,00.0,E*40
$WIMWV,024.9,R,016.3,N,A*28
$VWVHW,240.6,T,240.6,M,07.7,N,14.3,K*52
$GPRMC,164657.22,A,4601.61409,N,00114.40253,W,0008.9,303.6,160316,0.0,W,A*0B
$GPGGA,164657.22,4601.61409,N,00114.40253,W,1,05,0.0,5,M,50.0,M,,*6F
$GPGSA,A,3,02,03,14,23,31,,,,,,,,5.5,0.0,6.7*34
!AIVDM,1,1,,A,18vAfjo1hvwqO:DJHGHBHQsl050l,0*73
$SDDBT,37.9,f,11.6,M,06.3,F*38
$SDDPT,11.6,-1.0,99.0*7F
$HCHDG,331.3,00.0,E,00.0,E*40
$WIMWV,024.9,R,016.7,N,A*2C
$VWVHW,240.6,T,240.6,M,07.7,N,14.3,K*52
$GPRMC,164658.30,A,4601.61546,N,00114.40550,W,0008.9,303.6,160316,0.0,W,A*09
$GPGGA,164658.30,4601.61546,N,00114.40550,W,1,05,0.0,5,M,50.0,M,,*6D
$GPGSA,A,3,02,03,14,23,31,,,,,,,,5.5,0.0,6.7*34
$SDDBT,36.7,f,11.2,M,06.1,F*31
$SDDPT,11.2,-1.0,99.0*7B
$HCHDG,331.3,00.0,E,00.0,E*40
$WIMWV,025.2,R,016.5,N,A*24
$VWVHW,303.6,T,303.6,M,07.7,N,14.3,K*52
$GPRMC,164659.40,A,4601.61683,N,00114.40847,W,0008.9,303.6,160316,0.0,W,A*0E
$GPGGA,164659.40,4601.61683,N,00114.40847,W,1,05,0.0,5,M,50.0,M,,*6A
$GPGSA,A,3,02,03,14,23,31,,,,,,,,5.5,0.0,6.7*34
!AIVDM,1,1,,A,18vAfjo1hvwqO;dJHGLBHQr0050l,0*0B
$SDDBT,37.2,f,11.3,M,06.2,F*37
$SDDPT,11.3,-1.0,99.0*7A
$HCHDG,331.3,00.0,E,00.0,E*40
$WIMWV,025.1,R,016.3,N,A*21
$VWVHW,304.6,T,304.6,M,07.7,N,14.3,K*52
!AIVDM,2,1,7,A,58vAfjl0Nm;<4U?F220HU<R0D5=V222222222200,0*2D
!AIVDM,2,2,7,A,FPD5?4QAO<Q1APEC588888888888882,2*54
$SDDBT,38.7,f,11.8,M,06.5,F*31
$SDDPT,11.8,-1.0,99.0*71
$HCHDG,331.3,00.0,E,00.0,E*40
$WIMWV,025.5,R,016.6,N,A*20
$GPRMC,164700.51,A,4601.61823,N,00114.41140,W,0008.9,305.6,160316,0.0,W,A*0E
$GPGGA,164700.51,4601.61823,N,00114.41140,W,1,05,0.0,5,M,50.0,M,,*6C
$GPGSA,A,3,02,03,14,23,31,,,,,,,,5.5,0.0,6.7*34
$VWVHW,305.6,T,305.6,M,07.7,N,14.3,K*52
!AIVDM,1,1,,A,18vAfjo1hvwqO=2JHGPRHQr4050l,0*53
$SDDBT,39.4,f,12.0,M,06.6,F*3B
$SDDPT,12.0,-1.0,99.0*7A
$HCHDG,331.3,00.0,E,00.0,E*40
$WIMWV,025.7,R,016.7,N,A*23
$VWVHW,305.6,T,305.6,M,07.7,N,14.3,K*52
$GPRMC,164702.58,A,4601.62111,N,00114.41720,W,0008.9,305.6,160316,0.0,W,A*0E
$GPGGA,164702.58,4601.62111,N,00114.41720,W,1,05,0.0,5,M,50.0,M,,*6C
$GPGSA,A,3,02,03,14,23,31,,,,,,,,5.5,0.0,6.7*34
$SDDBT,38.7,f,11.8,M,06.4,F*30
$SDDPT,11.8,-1.0,99.0*71
$HCHDG,331.3,00.0,E,00.0,E*40
$WIMWV,025.7,R,016.8,N,A*2C
$VWVHW,306.6,T,306.6,M,07.7,N,14.3,K*52
$GPRMC,164703.68,A,4601.62258,N,00114.42006,W,0008.9,306.6,160316,0.0,W,A*01
$GPGGA,164703.68,4601.62258,N,00114.42006,W,1,05,0.0,5,M,50.0,M,,*60
$GPGSA,A,3,02,03,14,23,31,,,,,,,,5.5,0.0,6.7*34
!AIVDM,1,1,,A,18vAfjo1hvwqO>JJHGTRHQr8050l,0*20
$SDDBT,38.5,f,11.7,M,06.4,F*3D
$SDDPT,11.7,-1.0,99.0*7E
$HCHDG,331.3,00.0,E,00.0,E*40
$WIMWV,025.6,R,016.7,N,A*22
$VWVHW,307.6,T,307.6,M,07.7,N,14.3,K*52
$GPRMC,164704.77,A,4601.62409,N,00114.42288,W,0008.9,307.6,160316,0.0,W,A*0F
$GPGGA,164704.77,4601.62409,N,00114.42288,W,1,05,0.0,5,M,50.0,M,,*6F
$GPGSA,A,3,02,03,14,23,31,,,,,,,,5.5,0.0,6.7*34
$SDDBT,37.4,f,11.4,M,06.2,F*36
$SDDPT,11.4,-1.0,99.0*7D
$HCHDG,331.3,00.0,E,00.0,E*40
$WIMWV,024.9,R,016.8,N,A*23
$VWVHW,307.6,T,307.6,M,07.7,N,14.3,K*52
$GPRMC,164705.87,A,4601.62560,N,00114.42570,W,0008.9,308.6,160316,0.0,W,A*00
$GPGGA,164705.87,4601.62560,N,00114.42570,W,1,05,0.0,5,M,50.0,M,,*6F
$GPGSA,A,3,02,03,14,23,31,,,,,,,,5.5,0.0,6.7*34
!AIVDM,2,1,9,A,57RbiVD1N0gP4U?:221@4pdE:2n0<h5=>062221A,0*2D
!AIVDM,2,2,9,A,FPD5N5`;d<Q1APEC588888888888882,2*4A
!AIVDM,1,1,,A,17RbiV@4QBwqkp:JHSq52T2<050l,0*4B
!AIVDM,1,1,,A,98vAVa:N38OqhDFJGTuAa1P03P06,0*34
!AIVDM,1,1,,A,H7RepeP<@?B2n0<h5=<:2222220,2*2E
!AIVDM,1,1,,A,H7RepeTTi000000343l000181130,0*70
!AIVDM,1,1,,A,B7RepeP0FwvV5cVUr5:FIpS43P06,0*55
!AIVDM,2,1,8,A,58vAfjl0Nm;<4U?F220HU<R0D5=V222222222200,0*22
!AIVDM,2,2,8,A,FPD5?4QAO<Q1APEC588888888888882,2*5B
!AIVDM,1,1,,A,E>jCJWNQ<0hFh70c0TR@@@@@@@@?tdd6=2JB@10888S000,4*0A
!AIVDM,1,1,,A,18vAfjo1hvwqO?hJHG`jHQr<050l,0*0B
$SDDBT,39.5,f,12.0,M,06.6,F*3A
$SDDPT,12.0,-1.0,99.0*7A
$HCHDG,331.3,00.0,E,00.0,E*40
$WIMWV,025.0,R,016.6,N,A*25
$VWVHW,308.6,T,308.6,M,07.7,N,14.3,K*52
$GPRMC,164706.96,A,4601.62714,N,00114.42848,W,0008.9,309.6,160316,0.0,W,A*05
$GPGGA,164706.96,4601.62714,N,00114.42848,W,1,05,0.0,5,M,50.0,M,,*6B
$GPGSA,A,3,02,03,14,23,31,,,,,,,,5.5,0.0,6.7*34
$SDDBT,37.6,f,11.5,M,06.3,F*34
$SDDPT,11.5,-1.0,99.0*7C
$HCHDG,331.3,00.0,E,00.0,E*40
$WIMWV,025.1,R,016.7,N,A*25
$VWVHW,309.6,T,309.6,M,07.7,N,14.3,K*52
$GPRMC,164707.05,A,4601.62872,N,00114.43122,W,0008.9,309.6,160316,0.0,W,A*05
$GPGGA,164707.05,4601.62872,N,00114.43122,W,1,05,0.0,5,M,50.0,M,,*6B
$GPGSA,A,3,02,03,14,23,31,,,,,,,,5.5,0.0,6.7*34
!AIVDM,1,1,,A,18vAfjo1hvwqOA6JHGe2HQr@050l,0*0A
$SDDBT,39.6,f,12.1,M,06.6,F*38
$SDDPT,12.1,-1.0,99.0*7B
$HCHDG,331.3,00.0,E,00.0,E*40
$WIMWV,025.2,R,016.3,N,A*22
$VWVHW,310.6,T,310.6,M,07.7,N,14.3,K*52
$GPRMC,164708.15,A,4601.63033,N,00114.43392,W,0008.9,310.6,160316,0.0,W,A*06
$GPGGA,164708.15,4601.63033,N,00114.43392,W,1,05,0.0,5,M,50.0,M,,*60
$GPGSA,A,3,02,03,14,23,31,,,,,,,,5.5,0.0,6.7*34
$SDDBT,39.9,f,12.2,M,06.6,F*34
$SDDPT,12.2,-1.0,99.0*78
$HCHDG,331.3,00.0,E,00.0,E*40
$WIMWV,025.1,R,016.6,N,A*24
$VWVHW,310.6,T,310.6,M,07.7,N,14.3,K*52
$GPRMC,164709.24,A,4601.63194,N,00114.43662,W,0008.9,311.6,160316,0.0,W,A*02
$GPGGA,164709.24,4601.63194,N,00114.43662,W,1,05,0.0,5,M,50.0,M,,*65
$GPGSA,A,3,02,03,14,23,31,,,,,,,,5.5,0.0,6.7*34
!AIVDM,1,1,,A,18vAfjo1hvwqOBNJHGi2HQrD050l,0*79
$SDDBT,39.2,f,12.0,M,06.5,F*3E
$SDDPT,12.0,-1.0,99.0*7A
$HCHDG,331.3,00.0,E,00.0,E*40
$WIMWV,025.6,R,016.4,N,A*21
$VWVHW,311.6,T,311.6,M,07.7,N,14.3,K*52
$GPRMC,164710.33,A,4601.63358,N,00114.43928,W,0008.9,311.6,160316,0.0,W,A*0F
$GPGGA,164710.33,4601.63358,N,00114.43928,W,1,05,0.0,5,M,50.0,M,,*68
$GPGSA,A,3,02,03,14,23,31,,,,,,,,5.5,0.0,6.7*34
!AIVDM,2,1,9,A,58vAfjl0Nm;<4U?F220HU<R0D5=V222222222200,0*23
!AIVDM,2,2,9,A,FPD5?4QAO<Q1APEC588888888888882,2*5A
$SDDBT,37.2,f,11.3,M,06.2,F*37
$SDDPT,11.3,-1.0,99.0*7A
$HCHDG,331.3,00.0,E,00.0,E*40
$WIMWV,025.3,R,016.8,N,A*28
$VWVHW,311.6,T,311.6,M,07.7,N,14.3,K*52
$GPRMC,164711.43,A,4601.63522,N,00114.44194,W,0008.9,311.6,160316,0.0,W,A*0A
$GPGGA,164711.43,4601.63522,N,00114.44194,W,1,05,0.0,5,M,50.0,M,,*6D
$GPGSA,A,3,02,03,14,23,31,,,,,,,,5.5,0.0,6.7*34
!AIVDM,1,1,,A,18vAfjo1hvwqOClJHGmBHQrH050l,0*22
$SDDBT,37.3,f,11.4,M,06.2,F*31
$SDDPT,11.4,-1.0,99.0*7D
$HCHDG,331.3,00.0,E,00.0,E*40
$WIMWV,024.9,R,016.9,N,A*22
$VWVHW,311.6,T,311.6,M,07.7,N,14.3,K*52
$SDDBT,38.7,f,11.8,M,06.4,F*30
$SDDPT,11.8,-1.0,99.0*71
$HCHDG,331.3,00.0,E,00.0,E*40
$WIMWV,025.2,R,016.3,N,A*22
$VWVHW,311.6,T,311.6,M,07.7,N,14.3,K*52
$GPRMC,164713.55,A,4601.63850,N,00114.44726,W,0008.9,311.6,160316,0.0,W,A*08
$GPGGA,164713.55,4601.63850,N,00114.44726,W,1,05,0.0,5,M,50.0,M,,*6F
$GPGSA,A,3,02,03,14,23,31,,,,,,,,5.5,0.0,6.7*34
!AIVDM,1,1,,A,18vAfjo1hvwqOE<JHGqRHQrL050l,0*7C
$SDDBT,39.3,f,12.0,M,06.5,F*3F
$SDDPT,12.0,-1.0,99.0*7A
$HCHDG,331.3,00.0,E,00.0,E*40
$WIMWV,024.9,R,016.3,N,A*28
$VWVHW,311.6,T,311.6,M,07.7,N,14.3,K*52
$GPRMC,164714.62,A,4601.64014,N,00114.44992,W,0008.9,311.6,160316,0.0,W,A*05
$GPGGA,164714.62,4601.64014,N,00114.44992,W,1,05,0.0,5,M,50.0,M,,*62
$GPGSA,A,3,02,03,14,23,31,,,,,,,,5.5,0.0,6.7*34
$SDDBT,38.8,f,11.8,M,06.5,F*3E
$SDDPT,11.8,-1.0,99.0*71
$HCHDG,331.3,00.0,E,00.0,E*40
$WIMWV,025.4,R,016.3,N,A*24
$VWVHW,311.6,T,311.6,M,07.7,N,14.3,K*52
$GPRMC,164715.72,A,4601.64178,N,00114.45258,W,0008.9,311.6,160316,0.0,W,A*02
$GPGGA,164715.72,4601.64178,N,00114.45258,W,1,05,0.0,5,M,50.0,M,,*65
$GPGSA,A,3,02,03,14,23,31,,,,,,,,5.5,0.0,6.7*34
!AIVDM,2,1,0,A,57RbiVD1N0gP4U?:221@4pdE:2n0<h5=>062221A,0*24
!AIVDM,2,2,0,A,FPD5N5`;d<Q1APEC588888888888882,2*43
!AIVDM,1,1,,A,17RbiV@4QBwql08JHSEE2T2P050l,0*26
!AIVDM,1,1,,A,98vAVa:N38OqjslJGm5Qa4003P06,0*27
!AIVDM,1,1,,A,H7RepeP<@?B2n0<h5=<:2222220,2*2E
!AIVDM,1,1,,A,H7RepeTTi000000343l000181130,0*70
!AIVDM,1,1,,A,B7RepeP0FwvV3<VUquJFIp`43P06,0*0C
!AIVDM,2,1,0,A,58vAfjl0Nm;<4U?F220HU<R0D5=V222222222200,0*2A
!AIVDM,2,2,0,A,FPD5?4QAO<Q1APEC588888888888882,2*53
!AIVDM,1,1,,A,E>jCJWNQ<0hFh70c0TR@@@@@@@@?tdd6=2JB@10888`000,4*39
!AIVDM,1,1,,A,18vAfjo1hvwqOFRJHGuRHQrP050l,0*09
$SDDBT,36.9,f,11.3,M,06.2,F*3D
$SDDPT,11.3,-1.0,99.0*7A
$HCHDG,331.3,00.0,E,00.0,E*40
$WIMWV,025.4,R,016.5,N,A*22
$VWVHW,311.6,T,311.6,M,07.7,N,14.3,K*52
$GPRMC,164716.80,A,4601.64342,N,00114.45524,W,0008.9,311.6,160316,0.0,W,A*0B
$GPGGA,164716.80,4601.64342,N,00114.45524,W,1,05,0.0,5,M,50.0,M,,*6C
$GPGSA,A,3,02,03,14,23,31,,,,,,,,5.5,0.0,6.7*34
$SDDBT,39.8,f,12.1,M,06.6,F*36
$SDDPT,12.1,-1.0,99.0*7B
$HCHDG,331.3,00.0,E,00.0,E*40
$WIMWV,025.8,R,016.6,N,A*2D
$VWVHW,311.6,T,311.6,M,07.7,N,14.3,K*52
$GPRMC,164717.90,A,4601.64506,N,00114.45790,W,0008.9,311.6,160316,0.0,W,A*00
$GPGGA,164717.90,4601.64506,N,00114.45790,W,1,05,0.0,5,M,50.0,M,,*67
$GPGSA,A,3,02,03,14,23,31,,,,,,,,5.5,0.0,6.7*34
!AIVDM,1,1,,A,18vAfjo1hvwqOGpJHH1jHQrT050l,0*5D
$SDDBT,38.5,f,11.7,M,06.4,F*3D
$SDDPT,11.7,-1.0,99.0*7E
$HCHDG,331.3,00.0,E,00.0,E*40
$WIMWV,025.1,R,016.7,N,A*25
$VWVHW,311.6,T,311.6,M,07.7,N,14.3,K*52
$GPRMC,164718.99,A,4601.64670,N,00114.46056,W,0008.9,311.6,160316,0.0,W,A*0A
$GPGGA,164718.99,4601.64670,N,00114.46056,W,1,05,0.0,5,M,50.0,M,,*6D
$GPGSA,A,3,02,03,14,23,31,,,,,,,,5.5,0.0,6.7*34
$SDDBT,38.8,f,11.8,M,06.5,F*3E
$SDDPT,11.8,-1.0,99.0*71
$HCHDG,331.3,00.0,E,00.0,E*40
$WIMWV,025.1,R,016.4,N,A*26
$VWVHW,311.6,T,311.6,M,07.7,N,14.3,K*52
$GPRMC,164719.09,A,4601.64834,N,00114.46322,W,0008.9,311.6,160316,0.0,W,A*0C
$GPGGA,164719.09,4601.64834,N,00114.46322,W,1,05,0.0,5,M,50.0,M,,*6B
$GPGSA,A,3,02,03,14,23,31,,,,,,,,5.5,0.0,6.7*34
!AIVDM,1,1,,A,18vAfjo1hvwqOI@JHH5jHQr`050l,0*53
$SDDBT,36.7,f,11.2,M,06.1,F*31
$SDDPT,11.2,-1.0,99.0*7B
$HCHDG,331.3,00.0,E,00.0,E*40
$WIMWV,025.4,R,016.6,N,A*21
$VWVHW,311.6,T,311.6,M,07.7,N,14.3,K*52
$GPRMC,164720.17,A,4601.64998,N,00114.46588,W,0008.9,311.6,160316,0.0,W,A*08
$GPGGA,164720.17,4601.64998,N,00114.46588,W,1,05,0.0,5,M,50.0,M,,*6F
$GPGSA,A,3,02,03,14,23,31,,,,,,,,5.5,0.0,6.7*34
!AIVDM,2,1,1,A,58vAfjl0Nm;<4U?F220HU<R0D5=V222222222200,0*2B
!AIVDM,2,2,1,A,FPD5?4QAO<Q1APEC588888888888882,2*52
$SDDBT,39.2,f,12.0,M,06.5,F*3E
$SDDPT,12.0,-1.0,99.0*7A
$HCHDG,331.3,00.0,E,00.0,E*40
$WIMWV,025.0,R,016.6,N,A*25
$VWVHW,311.6,T,311.6,M,07.7,N,14.3,K*52
$GPRMC,164721.27,A,4601.65162,N,00114.46854,W,0008.9,311.6,160316,0.0,W,A*0A
$GPGGA,164721.27,4601.65162,N,00114.46854,W,1,05,0.0,5,M,50.0,M,,*6D
$GPGSA,A,3,02,03,14,23,31,,,,,,,,5.5,0.0,6.7*34
!AIVDM,1,1,,A,18vAfjo1hvwqOJVJHH:2HQrd050l,0*15
$SDDBT,37.4,f,11.4,M,06.2,F*36
$SDDPT,11.4,-1.0,99.0*7D
$HCHDG,331.3,00.0,E,00.0,E*40
$WIMWV,025.2,R,016.5,N,A*24
$VWVHW,311.6,T,311.6,M,07.7,N,14.3,K*52
$GPRMC,164722.36,A,4601.65326,N,00114.47120,W,0008.9,311.6,160316,0.0,W,A*00
$GPGGA,164722.36,4601.65326,N,00114.47120,W,1,05,0.0,5,M,50.0,M,,*67
$GPGSA,A,3,02,03,14,23,31,,,,,,,,5.5,0.0,6.7*34
$SDDBT,40.3,f,12.3,M,06.7,F*30
$SDDPT,12.3,-1.0,99.0*79
$HCHDG,331.3,00.0,E,00.0,E*40
$WIMWV,025.5,R,016.6,N,A*20
$VWVHW,311.6,T,311.6,M,07.7,N,14.3,K*52
$GPRMC,164723.46,A,4601.65490,N,00114.47386,W,0008.9,311.6,160316,0.0,W,A*02
$GPGGA,164723.46,4601.65490,N,00114.47386,W,1,05,0.0,5,M,50.0,M,,*65
$GPGSA,A,3,02,03,14,23,31,,,,,,,,5.5,0.0,6.7*34
!AIVDM,1,1,,A,18vAfjo1hvwqOKvJHH>2HQrh050l,0*3C
$SDDBT,39.0,f,11.9,M,06.5,F*36
$SDDPT,11.9,-1.0,99.0*70
$HCHDG,331.3,00.0,E,00.0,E*40
$WIMWV,025.4,R,016.4,N,A*23
$VWVHW,311.6,T,311.6,M,07.7,N,14.3,K*52
$SDDBT,39.6,f,12.1,M,06.6,F*38
$SDDPT,12.1,-1.0,99.0*7B
$HCHDG,331.3,00.0,E,00.0,E*40
$WIMWV,025.1,R,016.4,N,A*26
$VWVHW,311.6,T,311.6,M,07.7,N,14.3,K*52
$GPRMC,164725.56,A,4601.65818,N,00114.47918,W,0008.9,311.6,160316,0.0,W,A*04
$GPGGA,164725.56,4601.65818,N,00114.47918,W,1,05,0.0,5,M,50.0,M,,*63
$GPGSA,A,3,02,03,14,23,31,,,,,,,,5.5,0.0,6.7*34
!AIVDM,2,1,1,A,57RbiVD1N0gP4U?:221@4pdE:2n0<h5=>062221A,0*25
!AIVDM,2,2,1,A,FPD5N5`;d<Q1APEC588888888888882,2*42
!AIVDM,1,1,,A,17RbiV@4QBwql86JHRiU2T2l050l,0*21
!AIVDM,1,1,,A,98vAVa:N38OqmSFJH5=ia6P03P06,0*2F
!AIVDM,1,1,,A,H7RepeP<@?B2n0<h5=<:2222220,2*2E
!AIVDM,1,1,,A,H7RepeTTi000000343l000181130,0*70
!AIVDM,1,1,,A,B7RepeP0FwvV0eVUqmbFIpe43P06,0*63
!AIVDM,2,1,2,A,58vAfjl0Nm;<4U?F220HU<R0D5=V222222222200,0*28
!AIVDM,2,2,2,A,FPD5?4QAO<Q1APEC588888888888882,2*51
!AIVDM,1,1,,A,E>jCJWNQ<0hFh70c0TR@@@@@@@@?tdd6=2JB@10888e000,4*3C
!AIVDM,1,1,,A,18vAfjo1hvwqOMDJHHBBHQrl050l,0*00
$SDDBT,40.1,f,12.2,M,06.7,F*33
$SDDPT,12.2,-1.0,99.0*78
$HCHDG,331.3,00.0,E,00.0,E*40
$WIMWV,025.2,R,016.8,N,A*29
$VWVHW,311.6,T,311.6,M,07.7,N,14.3,K*52
$GPRMC,164726.65,A,4601.65982,N,00114.48184,W,0008.9,311.6,160316,0.0,W,A*07
$GPGGA,164726.65,4601.65982,N,00114.48184,W,1,05,0.0,5,M,50.0,M,,*60
$GPGSA,A,3,02,03,14,23,31,,,,,,,,5.5,0.0,6.7*34
$SDDBT,39.9,f,12.2,M,06.6,F*34
$SDDPT,12.2,-1.0,99.0*78
$HCHDG,331.3,00.0,E,00.0,E*40
$WIMWV,025.3,R,016.8,N,A*28
$VWVHW,311.6,T,311.6,M,07.7,N,14.3,K*52
$GPRMC,164727.74,A,4601.66146,N,00114.48450,W,0008.9,311.6,160316,0.0,W,A*09
$GPGGA,164727.74,4601.66146,N,00114.48450,W,1,05,0.0,5,M,50.0,M,,*6E
$GPGSA,A,3,02,03,14,23,31,,,,,,,,5.5,0.0,6.7*34
!AIVDM,1,1,,A,18vAfjo1hvwqONbJHHFRHQrp050l,0*2D
$SDDBT,40.2,f,12.3,M,06.7,F*31
$SDDPT,12.3,-1.0,99.0*79
$HCHDG,331.3,00.0,E,00.0,E*40
$WIMWV,025.3,R,016.3,N,A*23
$VWVHW,312.6,T,312.6,M,07.7,N,14.3,K*52
$GPRMC,164728.83,A,4601.66310,N,00114.48716,W,0008.9,312.6,160316,0.0,W,A*0D
$GPGGA,164728.83,4601.66310,N,00114.48716,W,1,05,0.0,5,M,50.0,M,,*69
$GPGSA,A,3,02,03,14,23,31,,,,,,,,5.5,0.0,6.7*34
$SDDBT,37.4,f,11.4,M,06.2,F*36
$SDDPT,11.4,-1.0,99.0*7D
$HCHDG,331.3,00.0,E,00.0,E*40
$WIMWV,025.5,R,016.5,N,A*23
$VWVHW,314.6,T,314.6,M,07.7,N,14.3,K*52
$GPRMC,164729.92,A,4601.66484,N,00114.48970,W,0008.9,316.6,160316,0.0,W,A*0C
$GPGGA,164729.92,4601.66484,N,00114.48970,W,1,05,0.0,5,M,50.0,M,,*6C
$GPGSA,A,3,02,03,14,23,31,,,,,,,,5.5,0.0,6.7*34
!AIVDM,1,1,,A,18vAfjo1hvwqOP2JHHJRHQrt050l,0*6B
$SDDBT,37.6,f,11.4,M,06.3,F*35
$SDDPT,11.4,-1.0,99.0*7D
$HCHDG,331.3,00.0,E,00.0,E*40
$WIMWV,025.1,R,016.9,N,A*2B
$VWVHW,317.6,T,317.6,M,07.7,N,14.3,K*52
$GPRMC,164730.02,A,4601.66667,N,00114.49210,W,0008.9,318.6,160316,0.0,W,A*00
$GPGGA,164730.02,4601.66667,N,00114.49210,W,1,05,0.0,5,M,50.0,M,,*6E
$GPGSA,A,3,02,03,14,23,31,,,,,,,,5.5,0.0,6.7*34
!AIVDM,2,1,3,A,58vAfjl0Nm;<4U?F220HU<R0D5=V222222222200,0*29
!AIVDM,2,2,3,A,FPD5?4QAO<Q1APEC588888888888882,2*50
$SDDBT,39.2,f,11.9,M,06.5,F*34
$SDDPT,11.9,-1.0,99.0*70
$HCHDG,331.3,00.0,E,00.0,E*40
$WIMWV,025.1,R,016.7,N,A*25
$VWVHW,320.6,T,320.6,M,07.7,N,14.3,K*52
$GPRMC,164731.11,A,4601.66858,N,00114.49436,W,0008.9,321.6,160316,0.0,W,A*09
$GPGGA,164731.11,4601.66858,N,00114.49436,W,1,05,0.0,5,M,50.0,M,,*6D
$GPGSA,A,3,02,03,14,23,31,,,,,,,,5.5,0.0,6.7*34
!AIVDM,1,1,,A,18vAfjo1hvwqOQHJHHNjHQs0050l,0*69
$SDDBT,37.0,f,11.3,M,06.2,F*35
$SDDPT,11.3,-1.0,99.0*7A
$HCHDG,331.3,00.0,E,00.0,E*40
$WIMWV,025.1,R,016.7,N,A*25
$VWVHW,321.6,T,321.6,M,07.7,N,14.3,K*52
$GPRMC,164732.20,A,4601.67052,N,00114.49657,W,0008.9,321.6,160316,0.0,W,A*0E
$GPGGA,164732.20,4601.67052,N,00114.49657,W,1,05,0.0,5,M,50.0,M,,*6A
$GPGSA,A,3,02,03,14,23,31,,,,,,,,5.5,0.0,6.7*34
$SDDBT,37.5,f,11.4,M,06.2,F*37
$SDDPT,11.4,-1.0,99.0*7D
$HCHDG,331.3,00.0,E,00.0,E*40
$WIMWV,025.8,R,016.6,N,A*2D
$VWVHW,322.6,T,322.6,M,07.7,N,14.3,K*52
$GPRMC,164733.31,A,4601.67248,N,00114.49873,W,0008.9,323.6,160316,0.0,W,A*0C
$GPGGA,164733.31,4601.67248,N,00114.49873,W,1,05,0.0,5,M,50.0,M,,*6A
$GPGSA,A,3,02,03,14,23,31,,,,,,,,5.5,0.0,6.7*34
!AIVDM,1,1,,A,18vAfjo1hvwqORhJHHS2HQs4050l,0*0B
$SDDBT,37.8,f,11.5,M,06.3,F*3A
$SDDPT,11.5,-1.0,99.0*7C
$HCHDG,331.3,00.0,E,00.0,E*40
$WIMWV,025.2,R,016.8,N,A*29
$VWVHW,324.6,T,324.6,M,07.7,N,14.3,K*52
$GPRMC,164734.40,A,4601.67447,N,00114.50084,W,0008.9,325.6,160316,0.0,W,A*0A
$GPGGA,164734.40,4601.67447,N,00114.50084,W,1,05,0.0,5,M,50.0,M,,*6A
$GPGSA,A,3,02,03,14,23,31,,,,,,,,5.5,0.0,6.7*34
$SDDBT,38.4,f,11.7,M,06.4,F*3C
$SDDPT,11.7,-1.0,99.0*7E
$HCHDG,331.3,00.0,E,00.0,E*40
$WIMWV,025.6,R,016.5,N,A*20
$VWVHW,325.6,T,325.6,M,07.7,N,14.3,K*52
!AIVDM,2,1,2,A,57RbiVD1N0gP4U?:221@4pdE:2n0<h5=>062221A,0*26
!AIVDM,2,2,2,A,FPD5N5`;d<Q1APEC588888888888882,2*41
!AIVDM,1,1,,A,17RbiV@4QBwql@4JHR=m2T38050l,0*62
!AIVDM,1,1,,A,98vAVa:N38Oqp:pJHEF1a9003P06,0*51
!AIVDM,1,1,,A,H7RepeP<@?B2n0<h5=<:2222220,2*2E
!AIVDM,1,1,,A,H7RepeTTi000000343l000181130,0*70
!AIVDM,1,1,,A,B7RepeP0FwvUv>VUqerFIpj43P06,0*6A
!AIVDM,2,1,4,A,58vAfjl0Nm;<4U?F220HU<R0D5=V222222222200,0*2E
!AIVDM,2,2,4,A,FPD5?4QAO<Q1APEC588888888888882,2*57
!AIVDM,1,1,,A,E>jCJWNQ<0hFh70c0TR@@@@@@@@?tdd6=2JB@10888j000,4*33
!AIVDM,1,1,,A,18vAfjo1hvwqOT6JHHW2HQs8050l,0*5B
$SDDBT,38.0,f,11.6,M,06.3,F*3E
$SDDPT,11.6,-1.0,99.0*7F
$HCHDG,331.3,00.0,E,00.0,E*40
$WIMWV,025.4,R,016.8,N,A*2F
$GPRMC,164735.60,A,4601.67651,N,00114.50285,W,0008.9,326.6,160316,0.0,W,A*0C
$GPGGA,164735.60,4601.67651,N,00114.50285,W,1,05,0.0,5,M,50.0,M,,*6F
$GPGSA,A,3,02,03,14,23,31,,,,,,,,5.5,0.0,6.7*34
$VWVHW,326.6,T,326.6,M,07.7,N,14.3,K*52
$SDDBT,38.7,f,11.8,M,06.5,F*31
$SDDPT,11.8,-1.0,99.0*71
$HCHDG,331.3,00.0,E,00.0,E*40
$WIMWV,025.5,R,016.7,N,A*21
$VWVHW,327.6,T,327.6,M,07.7,N,14.3,K*52
$GPRMC,164737.59,A,4601.68066,N,00114.50672,W,0008.9,327.6,160316,0.0,W,A*04
$GPGGA,164737.59,4601.68066,N,00114.50672,W,1,05,0.0,5,M,50.0,M,,*66
$GPGSA,A,3,02,03,14,23,31,,,,,,,,5.5,0.0,6.7*34
!AIVDM,1,1,,A,18vAfjo1hvwqOULJHHcBHQs<050l,0*60
$SDDBT,40.0,f,12.2,M,06.7,F*32
$SDDPT,12.2,-1.0,99.0*78
$HCHDG,331.3,00.0,E,00.0,E*40
$WIMWV,025.4,R,016.4,N,A*23
$VWVHW,328.6,T,328.6,M,07.7,N,14.3,K*52
$GPRMC,164738.68,A,4601.68277,N,00114.50858,W,0008.9,328.6,160316,0.0,W,A*02
$GPGGA,164738.68,4601.68277,N,00114.50858,W,1,05,0.0,5,M,50.0,M,,*6F
$GPGSA,A,3,02,03,14,23,31,,,,,,,,5.5,0.0,6.7*34
$SDDBT,36.6,f,11.2,M,06.1,F*30
$SDDPT,11.2,-1.0,99.0*7B
$HCHDG,331.3,00.0,E,00.0,E*40
$WIMWV,025.4,R,016.5,N,A*22
$VWVHW,329.6,T,329.6,M,07.7,N,14.3,K*52
$GPRMC,164739.78,A,4601.68490,N,00114.51038,W,0008.9,330.6,160316,0.0,W,A*0B
$GPGGA,164739.78,4601.68490,N,00114.51038,W,1,05,0.0,5,M,50.0,M,,*6F
$GPGSA,A,3,02,03,14,23,31,,,,,,,,5.5,0.0,6.7*34
!AIVDM,1,1,,A,18vAfjo1hvwqOVlJHHgBHQs@050l,0*3B
$SDDBT,37.1,f,11.3,M,06.2,F*34
$SDDPT,11.3,-1.0,99.0*7A
$HCHDG,331.3,00.0,E,00.0,E*40
